name,feature_class,feature_code,country_code,lat,long,nearby_features,neighbouring_features
Saint Thomas,https://www.geonames.org/ontology#A,https://www.geonames.org/ontology#A.ADM1,BB,13.17932,-59.58787,None,None
Saint Philip,https://www.geonames.org/ontology#A,https://www.geonames.org/ontology#A.ADM1,BB,13.1339,-59.46402,None,None
Saint Peter,https://www.geonames.org/ontology#A,https://www.geonames.org/ontology#A.ADM1,BB,13.26096,-59.61585,None,None
Saint Michael,https://www.geonames.org/ontology#A,https://www.geonames.org/ontology#A.ADM1,BB,13.12633,-59.59817,None,None
Saint Lucy,https://www.geonames.org/ontology#A,https://www.geonames.org/ontology#A.ADM1,BB,13.30728,-59.61937,None,None
Saint Joseph,https://www.geonames.org/ontology#A,https://www.geonames.org/ontology#A.ADM1,BB,13.2056,-59.54418,None,None
Saint John,https://www.geonames.org/ontology#A,https://www.geonames.org/ontology#A.ADM1,BB,13.17581,-59.50303,None,None
Saint James,https://www.geonames.org/ontology#A,https://www.geonames.org/ontology#A.ADM1,BB,13.21183,-59.61956,None,None
Saint George,https://www.geonames.org/ontology#A,https://www.geonames.org/ontology#A.ADM1,BB,13.13933,-59.54345,None,None
Saint Andrew,https://www.geonames.org/ontology#A,https://www.geonames.org/ontology#A.ADM1,BB,13.23986,-59.5783,None,None
Christ Church,https://www.geonames.org/ontology#A,https://www.geonames.org/ontology#A.ADM1,BB,13.08734,-59.52418,None,None
Upper Takutu-Upper Essequibo Region,https://www.geonames.org/ontology#A,https://www.geonames.org/ontology#A.ADM1,GY,2.91667,-59,None,None
Upper Demerara-Berbice Region,https://www.geonames.org/ontology#A,https://www.geonames.org/ontology#A.ADM1,GY,5.5,-58.33333,None,None
Potaro-Siparuni Region,https://www.geonames.org/ontology#A,https://www.geonames.org/ontology#A.ADM1,GY,4.9,-59.3,None,None
Pomeroon-Supenaam Region,https://www.geonames.org/ontology#A,https://www.geonames.org/ontology#A.ADM1,GY,7.08333,-58.83333,None,None
Mahaica-Berbice Region,https://www.geonames.org/ontology#A,https://www.geonames.org/ontology#A.ADM1,GY,6.25,-57.83333,None,None
Essequibo Islands-West Demerara Region,https://www.geonames.org/ontology#A,https://www.geonames.org/ontology#A.ADM1,GY,6.66667,-58.5,None,None
East Berbice-Corentyne Region,https://www.geonames.org/ontology#A,https://www.geonames.org/ontology#A.ADM1,GY,4,-58.16667,None,None
Demerara-Mahaica Region,https://www.geonames.org/ontology#A,https://www.geonames.org/ontology#A.ADM1,GY,6.5,-58.08333,None,None
Cuyuni-Mazaruni Region,https://www.geonames.org/ontology#A,https://www.geonames.org/ontology#A.ADM1,GY,6,-60,None,None
Barima-Waini Region,https://www.geonames.org/ontology#A,https://www.geonames.org/ontology#A.ADM1,GY,7.66667,-59.75,None,None
Distrikt Wanica,https://www.geonames.org/ontology#A,https://www.geonames.org/ontology#A.ADM1,SR,5.75,-55.25,None,None
Distrikt Sipaliwini,https://www.geonames.org/ontology#A,https://www.geonames.org/ontology#A.ADM1,SR,4,-56,None,None
Distrikt Saramacca,https://www.geonames.org/ontology#A,https://www.geonames.org/ontology#A.ADM1,SR,5.66667,-55.58333,None,None
Distrikt Paramaribo,https://www.geonames.org/ontology#A,https://www.geonames.org/ontology#A.ADM1,SR,5.86667,-55.16667,None,None
Distrikt Para,https://www.geonames.org/ontology#A,https://www.geonames.org/ontology#A.ADM1,SR,5.41667,-55.33333,None,None
Distrikt Nickerie,https://www.geonames.org/ontology#A,https://www.geonames.org/ontology#A.ADM1,SR,5.66667,-56.83333,None,None
Distrikt Marowijne,https://www.geonames.org/ontology#A,https://www.geonames.org/ontology#A.ADM1,SR,5.58333,-54.33333,None,None
Distrikt Coronie,https://www.geonames.org/ontology#A,https://www.geonames.org/ontology#A.ADM1,SR,5.58333,-56.25,None,None
Distrikt Commewijne,https://www.geonames.org/ontology#A,https://www.geonames.org/ontology#A.ADM1,SR,5.75,-54.91667,None,None
Distrikt Brokopondo,https://www.geonames.org/ontology#A,https://www.geonames.org/ontology#A.ADM1,SR,4.75,-55.16667,None,None
Rio Grande do Norte,https://www.geonames.org/ontology#A,https://www.geonames.org/ontology#A.ADM1,BR,-5.75,-36.5,None,None
Piauí,https://www.geonames.org/ontology#A,https://www.geonames.org/ontology#A.ADM1,BR,-7.25,-42.33333,None,None
Pernambuco,https://www.geonames.org/ontology#A,https://www.geonames.org/ontology#A.ADM1,BR,-8.33333,-37.75,None,None
Paraíba,https://www.geonames.org/ontology#A,https://www.geonames.org/ontology#A.ADM1,BR,-7.25,-36.5,None,None
Pará,https://www.geonames.org/ontology#A,https://www.geonames.org/ontology#A.ADM1,BR,-4,-53,None,None
Maranhão,https://www.geonames.org/ontology#A,https://www.geonames.org/ontology#A.ADM1,BR,-5,-45,None,None
Ceará,https://www.geonames.org/ontology#A,https://www.geonames.org/ontology#A.ADM1,BR,-5,-39.5,None,None
Amapá,https://www.geonames.org/ontology#A,https://www.geonames.org/ontology#A.ADM1,BR,1,-52,None,None
Alagoas,https://www.geonames.org/ontology#A,https://www.geonames.org/ontology#A.ADM1,BR,-9.58333,-36.41667,None,None
Commune de Saint-Pierre,https://www.geonames.org/ontology#A,https://www.geonames.org/ontology#A.ADM1,PM,46.78333,-56.2,None,None
Miquelon-Langlade,https://www.geonames.org/ontology#A,https://www.geonames.org/ontology#A.ADM1,PM,46.95612,-56.32656,None,None
Misiones,https://www.geonames.org/ontology#A,https://www.geonames.org/ontology#A.ADM1,AR,-26.81427,-54.34387,None,None
Formosa,https://www.geonames.org/ontology#A,https://www.geonames.org/ontology#A.ADM1,AR,-25,-60,None,None
Buenos Aires F.D.,https://www.geonames.org/ontology#A,https://www.geonames.org/ontology#A.ADM1,AR,-34.6,-58.45,None,None
Entre Rios,https://www.geonames.org/ontology#A,https://www.geonames.org/ontology#A.ADM1,AR,-32,-59,None,None
Corrientes,https://www.geonames.org/ontology#A,https://www.geonames.org/ontology#A.ADM1,AR,-29,-58,None,None
Buenos Aires,https://www.geonames.org/ontology#A,https://www.geonames.org/ontology#A.ADM1,AR,-36,-60,None,None
Departamento de San Pedro,https://www.geonames.org/ontology#A,https://www.geonames.org/ontology#A.ADM1,PY,-24.13333,-56.66667,None,None
Departamento de Presidente Hayes,https://www.geonames.org/ontology#A,https://www.geonames.org/ontology#A.ADM1,PY,-23.5,-58.83333,None,None
Departamento de Paraguarí,https://www.geonames.org/ontology#A,https://www.geonames.org/ontology#A.ADM1,PY,-26,-57.16667,None,None
Departamento de Ñeembucú,https://www.geonames.org/ontology#A,https://www.geonames.org/ontology#A.ADM1,PY,-26.66667,-57.91667,None,None
Departamento de Misiones,https://www.geonames.org/ontology#A,https://www.geonames.org/ontology#A.ADM1,PY,-27,-57,None,None
Departamento de Itapúa,https://www.geonames.org/ontology#A,https://www.geonames.org/ontology#A.ADM1,PY,-26.83333,-55.66667,None,None
Departamento del Guairá,https://www.geonames.org/ontology#A,https://www.geonames.org/ontology#A.ADM1,PY,-25.8,-56.26667,None,None
Departamento de la Cordillera,https://www.geonames.org/ontology#A,https://www.geonames.org/ontology#A.ADM1,PY,-25.25,-57,None,None
Departamento de Concepción,https://www.geonames.org/ontology#A,https://www.geonames.org/ontology#A.ADM1,PY,-22.83333,-57.16667,None,None
Departamento Central,https://www.geonames.org/ontology#A,https://www.geonames.org/ontology#A.ADM1,PY,-25.53333,-57.46667,None,None
Departamento de Canindeyú,https://www.geonames.org/ontology#A,https://www.geonames.org/ontology#A.ADM1,PY,-24.25,-55.25,None,None
Departamento de Caazapá,https://www.geonames.org/ontology#A,https://www.geonames.org/ontology#A.ADM1,PY,-26.25,-56.06667,None,None
Departamento de Caaguazú,https://www.geonames.org/ontology#A,https://www.geonames.org/ontology#A.ADM1,PY,-25.2,-55.83333,None,None
Departamento del Amambay,https://www.geonames.org/ontology#A,https://www.geonames.org/ontology#A.ADM1,PY,-22.83333,-55.95,None,None
Departamento del Alto Paraná,https://www.geonames.org/ontology#A,https://www.geonames.org/ontology#A.ADM1,PY,-25.5,-54.83333,None,None
Departamento de Alto Paraguay,https://www.geonames.org/ontology#A,https://www.geonames.org/ontology#A.ADM1,PY,-20.5,-59.16667,None,None
Departamento de Treinta y Tres,https://www.geonames.org/ontology#A,https://www.geonames.org/ontology#A.ADM1,UY,-33,-54.25,None,None
Departamento de Tacuarembó,https://www.geonames.org/ontology#A,https://www.geonames.org/ontology#A.ADM1,UY,-32.08333,-55.75,None,None
Soriano,https://www.geonames.org/ontology#A,https://www.geonames.org/ontology#A.ADM1,UY,-33.5,-57.75,None,None
Departamento de San José,https://www.geonames.org/ontology#A,https://www.geonames.org/ontology#A.ADM1,UY,-34.25,-56.75,None,None
Departamento de Salto,https://www.geonames.org/ontology#A,https://www.geonames.org/ontology#A.ADM1,UY,-31.41667,-57,None,None
Departamento de Rocha,https://www.geonames.org/ontology#A,https://www.geonames.org/ontology#A.ADM1,UY,-34,-54,None,None
Departamento de Rivera,https://www.geonames.org/ontology#A,https://www.geonames.org/ontology#A.ADM1,UY,-31.5,-55.25,None,None
Departamento de Río Negro,https://www.geonames.org/ontology#A,https://www.geonames.org/ontology#A.ADM1,UY,-32.75,-57.33333,None,None
Departamento de Paysandú,https://www.geonames.org/ontology#A,https://www.geonames.org/ontology#A.ADM1,UY,-32.08333,-57.25,None,None
Departamento de Montevideo,https://www.geonames.org/ontology#A,https://www.geonames.org/ontology#A.ADM1,UY,-34.825,-56.2,None,None
Maldonado,https://www.geonames.org/ontology#A,https://www.geonames.org/ontology#A.ADM1,UY,-34.58333,-54.83333,None,None
Lavalleja,https://www.geonames.org/ontology#A,https://www.geonames.org/ontology#A.ADM1,UY,-34,-55,None,None
Florida,https://www.geonames.org/ontology#A,https://www.geonames.org/ontology#A.ADM1,UY,-33.83333,-55.91667,None,None
Departamento de Flores,https://www.geonames.org/ontology#A,https://www.geonames.org/ontology#A.ADM1,UY,-33.58333,-56.83333,None,None
Departamento de Durazno,https://www.geonames.org/ontology#A,https://www.geonames.org/ontology#A.ADM1,UY,-33.08333,-56.08333,None,None
Colonia,https://www.geonames.org/ontology#A,https://www.geonames.org/ontology#A.ADM1,UY,-34.16667,-57.66667,None,None
Cerro Largo,https://www.geonames.org/ontology#A,https://www.geonames.org/ontology#A.ADM1,UY,-32.33333,-54.33333,None,None
Canelones,https://www.geonames.org/ontology#A,https://www.geonames.org/ontology#A.ADM1,UY,-34.53333,-55.91667,None,None
Artigas,https://www.geonames.org/ontology#A,https://www.geonames.org/ontology#A.ADM1,UY,-30.58333,-57,None,None
Sergipe,https://www.geonames.org/ontology#A,https://www.geonames.org/ontology#A.ADM1,BR,-10.5,-37.33333,None,None
São Paulo,https://www.geonames.org/ontology#A,https://www.geonames.org/ontology#A.ADM1,BR,-22,-49,None,None
Santa Catarina,https://www.geonames.org/ontology#A,https://www.geonames.org/ontology#A.ADM1,BR,-27,-50,None,None
Rio Grande do Sul,https://www.geonames.org/ontology#A,https://www.geonames.org/ontology#A.ADM1,BR,-30,-53.5,None,None
Rio de Janeiro,https://www.geonames.org/ontology#A,https://www.geonames.org/ontology#A.ADM1,BR,-22.25,-42.5,None,None
Paraná,https://www.geonames.org/ontology#A,https://www.geonames.org/ontology#A.ADM1,BR,-24.5,-51.33333,None,None
Minas Gerais,https://www.geonames.org/ontology#A,https://www.geonames.org/ontology#A.ADM1,BR,-18,-44,None,None
Mato Grosso do Sul,https://www.geonames.org/ontology#A,https://www.geonames.org/ontology#A.ADM1,BR,-20.5,-55,None,None
Mato Grosso,https://www.geonames.org/ontology#A,https://www.geonames.org/ontology#A.ADM1,BR,-13,-56,None,None
Goiás,https://www.geonames.org/ontology#A,https://www.geonames.org/ontology#A.ADM1,BR,-15.58071,-49.63623,None,None
Federal District,https://www.geonames.org/ontology#A,https://www.geonames.org/ontology#A.ADM1,BR,-15.75,-47.75,None,None
Espírito Santo,https://www.geonames.org/ontology#A,https://www.geonames.org/ontology#A.ADM1,BR,-20,-40.75,None,None
Bahia,https://www.geonames.org/ontology#A,https://www.geonames.org/ontology#A.ADM1,BR,-12,-42,None,None
Asunción,https://www.geonames.org/ontology#A,https://www.geonames.org/ontology#A.ADM1,PY,-25.28207,-57.63539,None,None
Tocantins,https://www.geonames.org/ontology#A,https://www.geonames.org/ontology#A.ADM1,BR,-10.5,-48,None,None
Westmoreland,https://www.geonames.org/ontology#A,https://www.geonames.org/ontology#A.ADM1,JM,18.23333,-78.15,None,None
Trelawny,https://www.geonames.org/ontology#A,https://www.geonames.org/ontology#A.ADM1,JM,18.38333,-77.63333,None,None
Saint Thomas,https://www.geonames.org/ontology#A,https://www.geonames.org/ontology#A.ADM1,JM,17.9,-76.43333,None,None
Saint Mary,https://www.geonames.org/ontology#A,https://www.geonames.org/ontology#A.ADM1,JM,18.31667,-76.9,None,None
Saint James,https://www.geonames.org/ontology#A,https://www.geonames.org/ontology#A.ADM1,JM,18.38333,-77.88333,None,None
St. Elizabeth,https://www.geonames.org/ontology#A,https://www.geonames.org/ontology#A.ADM1,JM,18.05,-77.78333,None,None
Saint Catherine,https://www.geonames.org/ontology#A,https://www.geonames.org/ontology#A.ADM1,JM,18.06667,-77.01667,None,None
Parish of Saint Ann,https://www.geonames.org/ontology#A,https://www.geonames.org/ontology#A.ADM1,JM,18.35,-77.26667,None,None
Saint Andrew,https://www.geonames.org/ontology#A,https://www.geonames.org/ontology#A.ADM1,JM,18.06667,-76.75,None,None
Portland,https://www.geonames.org/ontology#A,https://www.geonames.org/ontology#A.ADM1,JM,18.13333,-76.53333,None,None
Manchester,https://www.geonames.org/ontology#A,https://www.geonames.org/ontology#A.ADM1,JM,18.05,-77.53333,None,None
Kingston,https://www.geonames.org/ontology#A,https://www.geonames.org/ontology#A.ADM1,JM,17.96667,-76.8,None,None
Hanover,https://www.geonames.org/ontology#A,https://www.geonames.org/ontology#A.ADM1,JM,18.41667,-78.13333,None,None
Clarendon,https://www.geonames.org/ontology#A,https://www.geonames.org/ontology#A.ADM1,JM,17.98333,-77.3,None,None
Provincia de Valverde,https://www.geonames.org/ontology#A,https://www.geonames.org/ontology#A.ADM1,DO,19.58333,-71.05,None,None
Provincia de Santiago Rodríguez,https://www.geonames.org/ontology#A,https://www.geonames.org/ontology#A.ADM1,DO,19.41667,-71.33333,None,None
Provincia de Santiago,https://www.geonames.org/ontology#A,https://www.geonames.org/ontology#A.ADM1,DO,19.31667,-70.88333,None,None
Provincia de San Pedro de Macorís,https://www.geonames.org/ontology#A,https://www.geonames.org/ontology#A.ADM1,DO,18.5,-69.33333,None,None
Provincia de San Juan,https://www.geonames.org/ontology#A,https://www.geonames.org/ontology#A.ADM1,DO,18.83333,-71.25,None,None
Provincia de San Cristóbal,https://www.geonames.org/ontology#A,https://www.geonames.org/ontology#A.ADM1,DO,18.55,-70.2,None,None
Provincia Sánchez Ramírez,https://www.geonames.org/ontology#A,https://www.geonames.org/ontology#A.ADM1,DO,19,-70.16667,None,None
Samaná,https://www.geonames.org/ontology#A,https://www.geonames.org/ontology#A.ADM1,DO,19.25,-69.45,None,None
Provincia de Hermanas Mirabal,https://www.geonames.org/ontology#A,https://www.geonames.org/ontology#A.ADM1,DO,19.41667,-70.33333,None,None
Puerto Plata,https://www.geonames.org/ontology#A,https://www.geonames.org/ontology#A.ADM1,DO,19.75,-70.75,None,None
Provincia de Peravia,https://www.geonames.org/ontology#A,https://www.geonames.org/ontology#A.ADM1,DO,18.33333,-70.36667,None,None
Provincia de Pedernales,https://www.geonames.org/ontology#A,https://www.geonames.org/ontology#A.ADM1,DO,18,-71.56667,None,None
Nacional,https://www.geonames.org/ontology#A,https://www.geonames.org/ontology#A.ADM1,DO,18.48333,-69.93333,None,None
Provincia de Monte Plata,https://www.geonames.org/ontology#A,https://www.geonames.org/ontology#A.ADM1,DO,18.83333,-69.83333,None,None
Provincia de Monte Cristi,https://www.geonames.org/ontology#A,https://www.geonames.org/ontology#A.ADM1,DO,19.71667,-71.46667,None,None
Provincia de Monseñor Nouel,https://www.geonames.org/ontology#A,https://www.geonames.org/ontology#A.ADM1,DO,18.91667,-70.41667,None,None
Provincia María Trinidad Sánchez,https://www.geonames.org/ontology#A,https://www.geonames.org/ontology#A.ADM1,DO,19.41667,-70,None,None
Provincia de La Vega,https://www.geonames.org/ontology#A,https://www.geonames.org/ontology#A.ADM1,DO,19.05,-70.65,None,None
Provincia de La Romana,https://www.geonames.org/ontology#A,https://www.geonames.org/ontology#A.ADM1,DO,18.5,-68.96667,None,None
Provincia de La Altagracia,https://www.geonames.org/ontology#A,https://www.geonames.org/ontology#A.ADM1,DO,18.58333,-68.63333,None,None
Provincia de Independencia,https://www.geonames.org/ontology#A,https://www.geonames.org/ontology#A.ADM1,DO,18.4,-71.63333,None,None
Provincia de Hato Mayor,https://www.geonames.org/ontology#A,https://www.geonames.org/ontology#A.ADM1,DO,18.83333,-69.33333,None,None
Provincia Espaillat,https://www.geonames.org/ontology#A,https://www.geonames.org/ontology#A.ADM1,DO,19.58333,-70.41667,None,None
Provincia de El Seibo,https://www.geonames.org/ontology#A,https://www.geonames.org/ontology#A.ADM1,DO,18.8,-69.05,None,None
Provincia de Elías Piña,https://www.geonames.org/ontology#A,https://www.geonames.org/ontology#A.ADM1,DO,19,-71.63333,None,None
Provincia Duarte,https://www.geonames.org/ontology#A,https://www.geonames.org/ontology#A.ADM1,DO,19.25,-70.08333,None,None
Provincia de Dajabón,https://www.geonames.org/ontology#A,https://www.geonames.org/ontology#A.ADM1,DO,19.43333,-71.58333,None,None
Provincia de Barahona,https://www.geonames.org/ontology#A,https://www.geonames.org/ontology#A.ADM1,DO,18.16667,-71.25,None,None
Provincia de Baoruco,https://www.geonames.org/ontology#A,https://www.geonames.org/ontology#A.ADM1,DO,18.5,-71.35,None,None
Provincia de Azua,https://www.geonames.org/ontology#A,https://www.geonames.org/ontology#A.ADM1,DO,18.58333,-70.8,None,None
Yucatán,https://www.geonames.org/ontology#A,https://www.geonames.org/ontology#A.ADM1,MX,20.75,-88.83333,None,None
Veracruz,https://www.geonames.org/ontology#A,https://www.geonames.org/ontology#A.ADM1,MX,19.33333,-96.66667,None,None
Tlaxcala,https://www.geonames.org/ontology#A,https://www.geonames.org/ontology#A.ADM1,MX,19.41667,-98.16667,None,None
Tamaulipas,https://www.geonames.org/ontology#A,https://www.geonames.org/ontology#A.ADM1,MX,24,-98.75,None,None
Tabasco,https://www.geonames.org/ontology#A,https://www.geonames.org/ontology#A.ADM1,MX,18,-92.66667,None,None
Quintana Roo,https://www.geonames.org/ontology#A,https://www.geonames.org/ontology#A.ADM1,MX,19.66667,-88.25,None,None
Querétaro,https://www.geonames.org/ontology#A,https://www.geonames.org/ontology#A.ADM1,MX,20.85,-99.85,None,None
Puebla,https://www.geonames.org/ontology#A,https://www.geonames.org/ontology#A.ADM1,MX,18.75,-97.91667,None,None
Oaxaca,https://www.geonames.org/ontology#A,https://www.geonames.org/ontology#A.ADM1,MX,17,-96.5,None,None
Nuevo León,https://www.geonames.org/ontology#A,https://www.geonames.org/ontology#A.ADM1,MX,25.58333,-99.75,None,None
Morelos,https://www.geonames.org/ontology#A,https://www.geonames.org/ontology#A.ADM1,MX,18.75,-99.06667,None,None
México,https://www.geonames.org/ontology#A,https://www.geonames.org/ontology#A.ADM1,MX,19.36667,-99.66667,None,None
Hidalgo,https://www.geonames.org/ontology#A,https://www.geonames.org/ontology#A.ADM1,MX,20.5,-99,None,None
Guerrero,https://www.geonames.org/ontology#A,https://www.geonames.org/ontology#A.ADM1,MX,17.66667,-100,None,None
Mexico City,https://www.geonames.org/ontology#A,https://www.geonames.org/ontology#A.ADM1,MX,19.28333,-99.13333,None,None
Chiapas,https://www.geonames.org/ontology#A,https://www.geonames.org/ontology#A.ADM1,MX,16.5,-92.5,None,None
Campeche,https://www.geonames.org/ontology#A,https://www.geonames.org/ontology#A.ADM1,MX,18.83333,-90.25,None,None
Provincia de Villa Clara,https://www.geonames.org/ontology#A,https://www.geonames.org/ontology#A.ADM1,CU,22.56667,-80,None,None
Provincia de Santiago de Cuba,https://www.geonames.org/ontology#A,https://www.geonames.org/ontology#A.ADM1,CU,20.2,-75.93333,None,None
Provincia de Sancti Spíritus,https://www.geonames.org/ontology#A,https://www.geonames.org/ontology#A.ADM1,CU,21.91667,-79.41667,None,None
Provincia de Pinar del Río,https://www.geonames.org/ontology#A,https://www.geonames.org/ontology#A.ADM1,CU,22.41667,-83.83333,None,None
Provincia de Matanzas,https://www.geonames.org/ontology#A,https://www.geonames.org/ontology#A.ADM1,CU,22.66667,-81.16667,None,None
Las Tunas,https://www.geonames.org/ontology#A,https://www.geonames.org/ontology#A.ADM1,CU,21.1,-76.9,None,None
Municipio Especial Isla de la Juventud,https://www.geonames.org/ontology#A,https://www.geonames.org/ontology#A.ADM1,CU,21.7,-82.81667,None,None
Provincia de Holguín,https://www.geonames.org/ontology#A,https://www.geonames.org/ontology#A.ADM1,CU,20.75,-75.91667,None,None
Provincia de Guantánamo,https://www.geonames.org/ontology#A,https://www.geonames.org/ontology#A.ADM1,CU,20.21667,-74.86667,None,None
Provincia Granma,https://www.geonames.org/ontology#A,https://www.geonames.org/ontology#A.ADM1,CU,20.28333,-76.86667,None,None
Havana,https://www.geonames.org/ontology#A,https://www.geonames.org/ontology#A.ADM1,CU,23.08333,-82.3,None,None
Provincia de Cienfuegos,https://www.geonames.org/ontology#A,https://www.geonames.org/ontology#A.ADM1,CU,22.26667,-80.45,None,None
Provincia de Ciego de Ávila,https://www.geonames.org/ontology#A,https://www.geonames.org/ontology#A.ADM1,CU,21.96667,-78.63333,None,None
Provincia de Camagüey,https://www.geonames.org/ontology#A,https://www.geonames.org/ontology#A.ADM1,CU,21.35,-77.85,None,None
San Salvador District,https://www.geonames.org/ontology#A,https://www.geonames.org/ontology#A.ADM1,BS,24.03667,-74.49306,None,None
Ragged Island District,https://www.geonames.org/ontology#A,https://www.geonames.org/ontology#A.ADM1,BS,22.37083,-75.815,None,None
Berry Islands District,https://www.geonames.org/ontology#A,https://www.geonames.org/ontology#A.ADM1,BS,25.72111,-77.83139,None,None
New Providence District,https://www.geonames.org/ontology#A,https://www.geonames.org/ontology#A.ADM1,BS,25.03333,-77.28333,None,None
Mayaguana District,https://www.geonames.org/ontology#A,https://www.geonames.org/ontology#A.ADM1,BS,22.38417,-72.95389,None,None
Long Island,https://www.geonames.org/ontology#A,https://www.geonames.org/ontology#A.ADM1,BS,23.21667,-75.11167,None,None
Inagua,https://www.geonames.org/ontology#A,https://www.geonames.org/ontology#A.ADM1,BS,21.07694,-73.31167,None,None
Harbour Island,https://www.geonames.org/ontology#A,https://www.geonames.org/ontology#A.ADM1,BS,25.48946,-76.63513,None,None
City of Freeport District,https://www.geonames.org/ontology#A,https://www.geonames.org/ontology#A.ADM1,BS,26.52028,-78.64528,None,None
Exuma District,https://www.geonames.org/ontology#A,https://www.geonames.org/ontology#A.ADM1,BS,23.56944,-75.88417,None,None
Cat Island,https://www.geonames.org/ontology#A,https://www.geonames.org/ontology#A.ADM1,BS,24.335,-75.4575,None,None
Bimini,https://www.geonames.org/ontology#A,https://www.geonames.org/ontology#A.ADM1,BS,25.70444,-79.28889,None,None
Acklins Island District,https://www.geonames.org/ontology#A,https://www.geonames.org/ontology#A.ADM1,BS,22.43167,-73.96417,None,None
Warwick Parish,https://www.geonames.org/ontology#A,https://www.geonames.org/ontology#A.ADM1,BM,32.26583,-64.80722,None,None
Southampton Parish,https://www.geonames.org/ontology#A,https://www.geonames.org/ontology#A.ADM1,BM,32.25083,-64.85639,None,None
Smith’s Parish,https://www.geonames.org/ontology#A,https://www.geonames.org/ontology#A.ADM1,BM,32.31528,-64.73528,None,None
Sandys Parish,https://www.geonames.org/ontology#A,https://www.geonames.org/ontology#A.ADM1,BM,32.29345,-64.86828,None,None
Saint George’s Parish,https://www.geonames.org/ontology#A,https://www.geonames.org/ontology#A.ADM1,BM,32.3726,-64.69437,None,None
Saint George,https://www.geonames.org/ontology#A,https://www.geonames.org/ontology#A.ADM1,BM,32.38417,-64.67639,None,None
Pembroke Parish,https://www.geonames.org/ontology#A,https://www.geonames.org/ontology#A.ADM1,BM,32.29944,-64.79278,None,None
Paget,https://www.geonames.org/ontology#A,https://www.geonames.org/ontology#A.ADM1,BM,32.27833,-64.78167,None,None
Hamilton,https://www.geonames.org/ontology#A,https://www.geonames.org/ontology#A.ADM1,BM,32.34222,-64.72833,None,None
Hamilton city,https://www.geonames.org/ontology#A,https://www.geonames.org/ontology#A.ADM1,BM,32.29326,-64.78063,None,None
Devonshire Parish,https://www.geonames.org/ontology#A,https://www.geonames.org/ontology#A.ADM1,BM,32.30278,-64.75583,None,None
Tobago,https://www.geonames.org/ontology#A,https://www.geonames.org/ontology#A.ADM1,TT,11.25,-60.66667,None,None
San Fernando,https://www.geonames.org/ontology#A,https://www.geonames.org/ontology#A.ADM1,TT,10.28127,-61.45037,None,None
Port of Spain,https://www.geonames.org/ontology#A,https://www.geonames.org/ontology#A.ADM1,TT,10.66389,-61.51667,None,None
Mayaro,https://www.geonames.org/ontology#A,https://www.geonames.org/ontology#A.ADM1,TT,10.16667,-61.08333,None,None
Borough of Arima,https://www.geonames.org/ontology#A,https://www.geonames.org/ontology#A.ADM1,TT,10.625,-61.27917,None,None
Trinity Palmetto Point,https://www.geonames.org/ontology#A,https://www.geonames.org/ontology#A.ADM1,KN,17.30667,-62.76374,None,None
Middle Island,https://www.geonames.org/ontology#A,https://www.geonames.org/ontology#A.ADM1,KN,17.35,-62.8,None,None
Saint Thomas Lowland,https://www.geonames.org/ontology#A,https://www.geonames.org/ontology#A.ADM1,KN,17.16667,-62.6,None,None
Saint Peter Basseterre,https://www.geonames.org/ontology#A,https://www.geonames.org/ontology#A.ADM1,KN,17.31667,-62.71667,None,None
Saint Paul Charlestown,https://www.geonames.org/ontology#A,https://www.geonames.org/ontology#A.ADM1,KN,17.13456,-62.61473,None,None
Saint Paul Capesterre,https://www.geonames.org/ontology#A,https://www.geonames.org/ontology#A.ADM1,KN,17.4,-62.83333,None,None
Saint Mary Cayon,https://www.geonames.org/ontology#A,https://www.geonames.org/ontology#A.ADM1,KN,17.35,-62.73333,None,None
Saint John Figtree,https://www.geonames.org/ontology#A,https://www.geonames.org/ontology#A.ADM1,KN,17.11667,-62.6,None,None
Saint John Capesterre,https://www.geonames.org/ontology#A,https://www.geonames.org/ontology#A.ADM1,KN,17.38333,-62.8,None,None
Saint James Windward,https://www.geonames.org/ontology#A,https://www.geonames.org/ontology#A.ADM1,KN,17.16667,-62.56667,None,None
Saint George Gingerland,https://www.geonames.org/ontology#A,https://www.geonames.org/ontology#A.ADM1,KN,17.13333,-62.56667,None,None
Saint George Basseterre,https://www.geonames.org/ontology#A,https://www.geonames.org/ontology#A.ADM1,KN,17.29732,-62.70613,None,None
Saint Anne Sandy Point,https://www.geonames.org/ontology#A,https://www.geonames.org/ontology#A.ADM1,KN,17.36667,-62.83333,None,None
Christ Church Nichola Town,https://www.geonames.org/ontology#A,https://www.geonames.org/ontology#A.ADM1,KN,17.35,-62.76667,None,None
Saint Peter,https://www.geonames.org/ontology#A,https://www.geonames.org/ontology#A.ADM1,DM,15.51667,-61.45,None,None
Saint Paul,https://www.geonames.org/ontology#A,https://www.geonames.org/ontology#A.ADM1,DM,15.35,-61.38333,None,None
Saint Patrick,https://www.geonames.org/ontology#A,https://www.geonames.org/ontology#A.ADM1,DM,15.28333,-61.3,None,None
Saint Mark,https://www.geonames.org/ontology#A,https://www.geonames.org/ontology#A.ADM1,DM,15.21667,-61.36667,None,None
Saint Luke,https://www.geonames.org/ontology#A,https://www.geonames.org/ontology#A.ADM1,DM,15.25094,-61.36726,None,None
Saint Joseph,https://www.geonames.org/ontology#A,https://www.geonames.org/ontology#A.ADM1,DM,15.43333,-61.43333,None,None
Saint John,https://www.geonames.org/ontology#A,https://www.geonames.org/ontology#A.ADM1,DM,15.58333,-61.45,None,None
Saint George,https://www.geonames.org/ontology#A,https://www.geonames.org/ontology#A.ADM1,DM,15.3,-61.36667,None,None
Saint David,https://www.geonames.org/ontology#A,https://www.geonames.org/ontology#A.ADM1,DM,15.46667,-61.28333,None,None
Saint Andrew,https://www.geonames.org/ontology#A,https://www.geonames.org/ontology#A.ADM1,DM,15.56667,-61.36667,None,None
Parish of Saint Philip,https://www.geonames.org/ontology#A,https://www.geonames.org/ontology#A.ADM1,AG,17.05,-61.71667,None,None
Parish of Saint Peter,https://www.geonames.org/ontology#A,https://www.geonames.org/ontology#A.ADM1,AG,17.08925,-61.74819,None,None
Parish of Saint Paul,https://www.geonames.org/ontology#A,https://www.geonames.org/ontology#A.ADM1,AG,17.03333,-61.76667,None,None
Parish of Saint Mary,https://www.geonames.org/ontology#A,https://www.geonames.org/ontology#A.ADM1,AG,17.05,-61.85,None,None
Parish of Saint John,https://www.geonames.org/ontology#A,https://www.geonames.org/ontology#A.ADM1,AG,17.1,-61.85,None,None
Parish of Saint George,https://www.geonames.org/ontology#A,https://www.geonames.org/ontology#A.ADM1,AG,17.1227,-61.79679,None,None
Redonda,https://www.geonames.org/ontology#A,https://www.geonames.org/ontology#A.ADM1,AG,16.93889,-62.34556,None,None
Barbuda,https://www.geonames.org/ontology#A,https://www.geonames.org/ontology#A.ADM1,AG,17.63333,-61.8,None,None
Vieux-Fort,https://www.geonames.org/ontology#A,https://www.geonames.org/ontology#A.ADM1,LC,13.78407,-60.96588,None,None
Soufrière,https://www.geonames.org/ontology#A,https://www.geonames.org/ontology#A.ADM1,LC,13.84541,-61.02493,None,None
Micoud,https://www.geonames.org/ontology#A,https://www.geonames.org/ontology#A.ADM1,LC,13.82041,-60.94563,None,None
Laborie,https://www.geonames.org/ontology#A,https://www.geonames.org/ontology#A.ADM1,LC,13.7867,-61.00309,None,None
Gros-Islet,https://www.geonames.org/ontology#A,https://www.geonames.org/ontology#A.ADM1,LC,14.05366,-60.94494,None,None
Dennery,https://www.geonames.org/ontology#A,https://www.geonames.org/ontology#A.ADM1,LC,13.92507,-60.91919,None,None
Choiseul,https://www.geonames.org/ontology#A,https://www.geonames.org/ontology#A.ADM1,LC,13.80157,-61.02819,None,None
Castries,https://www.geonames.org/ontology#A,https://www.geonames.org/ontology#A.ADM1,LC,13.98404,-60.97,None,None
Anse-la-Raye,https://www.geonames.org/ontology#A,https://www.geonames.org/ontology#A.ADM1,LC,13.91207,-61.01566,None,None
Parish of Saint Patrick,https://www.geonames.org/ontology#A,https://www.geonames.org/ontology#A.ADM1,VC,13.2399,-61.23449,None,None
Parish of Saint George,https://www.geonames.org/ontology#A,https://www.geonames.org/ontology#A.ADM1,VC,13.16524,-61.19282,None,None
Parish of Saint David,https://www.geonames.org/ontology#A,https://www.geonames.org/ontology#A.ADM1,VC,13.3,-61.2,None,None
Parish of Saint Andrew,https://www.geonames.org/ontology#A,https://www.geonames.org/ontology#A.ADM1,VC,13.20393,-61.23015,None,None
Grenadines,https://www.geonames.org/ontology#A,https://www.geonames.org/ontology#A.ADM1,VC,12.8781,-61.18283,None,None
Parish of Charlotte,https://www.geonames.org/ontology#A,https://www.geonames.org/ontology#A.ADM1,VC,13.25064,-61.15196,None,None
Parish of Saint Peter,https://www.geonames.org/ontology#A,https://www.geonames.org/ontology#A.ADM1,MS,16.78333,-62.205,None,None
Parish of Saint Georges,https://www.geonames.org/ontology#A,https://www.geonames.org/ontology#A.ADM1,MS,16.74432,-62.17161,None,None
Parish of Saint Anthony,https://www.geonames.org/ontology#A,https://www.geonames.org/ontology#A.ADM1,MS,16.7,-62.2,None,None
Saint Patrick,https://www.geonames.org/ontology#A,https://www.geonames.org/ontology#A.ADM1,GD,12.2,-61.63333,None,None
Saint Mark,https://www.geonames.org/ontology#A,https://www.geonames.org/ontology#A.ADM1,GD,12.18333,-61.68333,None,None
Saint John,https://www.geonames.org/ontology#A,https://www.geonames.org/ontology#A.ADM1,GD,12.13333,-61.71667,None,None
Saint George,https://www.geonames.org/ontology#A,https://www.geonames.org/ontology#A.ADM1,GD,12.05,-61.73333,None,None
Saint David,https://www.geonames.org/ontology#A,https://www.geonames.org/ontology#A.ADM1,GD,12.05,-61.66667,None,None
Saint Andrew,https://www.geonames.org/ontology#A,https://www.geonames.org/ontology#A.ADM1,GD,12.11667,-61.65,None,None
Toledo District,https://www.geonames.org/ontology#A,https://www.geonames.org/ontology#A.ADM1,BZ,16.33333,-88.86667,None,None
Stann Creek District,https://www.geonames.org/ontology#A,https://www.geonames.org/ontology#A.ADM1,BZ,16.83333,-88.46667,None,None
Orange Walk District,https://www.geonames.org/ontology#A,https://www.geonames.org/ontology#A.ADM1,BZ,17.76667,-88.8,None,None
Corozal District,https://www.geonames.org/ontology#A,https://www.geonames.org/ontology#A.ADM1,BZ,18.21667,-88.31667,None,None
Cayo District,https://www.geonames.org/ontology#A,https://www.geonames.org/ontology#A.ADM1,BZ,17,-88.9,None,None
Belize District,https://www.geonames.org/ontology#A,https://www.geonames.org/ontology#A.ADM1,BZ,17.55,-88.41667,None,None
Departamento de Usulután,https://www.geonames.org/ontology#A,https://www.geonames.org/ontology#A.ADM1,SV,13.43333,-88.53333,None,None
Departamento de Sonsonate,https://www.geonames.org/ontology#A,https://www.geonames.org/ontology#A.ADM1,SV,13.7,-89.7,None,None
Departamento de San Vicente,https://www.geonames.org/ontology#A,https://www.geonames.org/ontology#A.ADM1,SV,13.51667,-88.75,None,None
Departamento de Santa Ana,https://www.geonames.org/ontology#A,https://www.geonames.org/ontology#A.ADM1,SV,14.1,-89.58333,None,None
Departamento de San Salvador,https://www.geonames.org/ontology#A,https://www.geonames.org/ontology#A.ADM1,SV,13.78333,-89.18333,None,None
Departamento de San Miguel,https://www.geonames.org/ontology#A,https://www.geonames.org/ontology#A.ADM1,SV,13.53333,-88.28333,None,None
Departamento de Morazán,https://www.geonames.org/ontology#A,https://www.geonames.org/ontology#A.ADM1,SV,13.8,-88.1,None,None
Departamento de La Unión,https://www.geonames.org/ontology#A,https://www.geonames.org/ontology#A.ADM1,SV,13.55,-87.9,None,None
Departamento de La Paz,https://www.geonames.org/ontology#A,https://www.geonames.org/ontology#A.ADM1,SV,13.46667,-88.98333,None,None
Departamento de La Libertad,https://www.geonames.org/ontology#A,https://www.geonames.org/ontology#A.ADM1,SV,13.75,-89.38333,None,None
Departamento de Cuscatlán,https://www.geonames.org/ontology#A,https://www.geonames.org/ontology#A.ADM1,SV,13.83333,-89.03333,None,None
Departamento de Chalatenango,https://www.geonames.org/ontology#A,https://www.geonames.org/ontology#A.ADM1,SV,14.13333,-89.01667,None,None
Departamento de Cabañas,https://www.geonames.org/ontology#A,https://www.geonames.org/ontology#A.ADM1,SV,13.86667,-88.75,None,None
Departamento de Ahuachapán,https://www.geonames.org/ontology#A,https://www.geonames.org/ontology#A.ADM1,SV,13.86667,-89.91667,None,None
Departamento de Zacapa,https://www.geonames.org/ontology#A,https://www.geonames.org/ontology#A.ADM1,GT,15,-89.5,None,None
Departamento de Totonicapán,https://www.geonames.org/ontology#A,https://www.geonames.org/ontology#A.ADM1,GT,15,-91.33333,None,None
Suchitepequez Department,https://www.geonames.org/ontology#A,https://www.geonames.org/ontology#A.ADM1,GT,14.38084,-91.43046,None,None
Departamento de Sololá,https://www.geonames.org/ontology#A,https://www.geonames.org/ontology#A.ADM1,GT,14.66667,-91.25,None,None
Departamento de Santa Rosa,https://www.geonames.org/ontology#A,https://www.geonames.org/ontology#A.ADM1,GT,14.16667,-90.3,None,None
Departamento de San Marcos,https://www.geonames.org/ontology#A,https://www.geonames.org/ontology#A.ADM1,GT,15,-91.91667,None,None
Departamento de Sacatepéquez,https://www.geonames.org/ontology#A,https://www.geonames.org/ontology#A.ADM1,GT,14.58333,-90.75,None,None
Departamento de Retalhuleu,https://www.geonames.org/ontology#A,https://www.geonames.org/ontology#A.ADM1,GT,14.33333,-91.83333,None,None
Departamento del Quiché,https://www.geonames.org/ontology#A,https://www.geonames.org/ontology#A.ADM1,GT,15.5,-90.91667,None,None
Departamento de Quetzaltenango,https://www.geonames.org/ontology#A,https://www.geonames.org/ontology#A.ADM1,GT,14.75,-91.66667,None,None
Departamento del Petén,https://www.geonames.org/ontology#A,https://www.geonames.org/ontology#A.ADM1,GT,16.83333,-90,None,None
Departamento de Jutiapa,https://www.geonames.org/ontology#A,https://www.geonames.org/ontology#A.ADM1,GT,14.16667,-89.83333,None,None
Departamento de Jalapa,https://www.geonames.org/ontology#A,https://www.geonames.org/ontology#A.ADM1,GT,14.58333,-89.91667,None,None
Departamento de Izabal,https://www.geonames.org/ontology#A,https://www.geonames.org/ontology#A.ADM1,GT,15.5,-89,None,None
Departamento de Huehuetenango,https://www.geonames.org/ontology#A,https://www.geonames.org/ontology#A.ADM1,GT,15.66667,-91.58333,None,None
Departamento de Guatemala,https://www.geonames.org/ontology#A,https://www.geonames.org/ontology#A.ADM1,GT,14.66667,-90.5,None,None
Departamento de Escuintla,https://www.geonames.org/ontology#A,https://www.geonames.org/ontology#A.ADM1,GT,14.16667,-91,None,None
Departamento de El Progreso,https://www.geonames.org/ontology#A,https://www.geonames.org/ontology#A.ADM1,GT,14.83333,-90,None,None
Departamento de Chiquimula,https://www.geonames.org/ontology#A,https://www.geonames.org/ontology#A.ADM1,GT,14.66667,-89.41667,None,None
Departamento de Chimaltenango,https://www.geonames.org/ontology#A,https://www.geonames.org/ontology#A.ADM1,GT,14.66667,-90.91667,None,None
Departamento de Baja Verapaz,https://www.geonames.org/ontology#A,https://www.geonames.org/ontology#A.ADM1,GT,15.08333,-90.33333,None,None
Departamento de Alta Verapaz,https://www.geonames.org/ontology#A,https://www.geonames.org/ontology#A.ADM1,GT,15.66667,-90,None,None
Departamento de Yoro,https://www.geonames.org/ontology#A,https://www.geonames.org/ontology#A.ADM1,HN,15.25,-87.16667,None,None
Departamento de Valle,https://www.geonames.org/ontology#A,https://www.geonames.org/ontology#A.ADM1,HN,13.58333,-87.58333,None,None
Departamento de Santa Bárbara,https://www.geonames.org/ontology#A,https://www.geonames.org/ontology#A.ADM1,HN,15.08333,-88.33333,None,None
Departamento de Olancho,https://www.geonames.org/ontology#A,https://www.geonames.org/ontology#A.ADM1,HN,14.83333,-86,None,None
Departamento de Ocotepeque,https://www.geonames.org/ontology#A,https://www.geonames.org/ontology#A.ADM1,HN,14.5,-89,None,None
Departamento de Lempira,https://www.geonames.org/ontology#A,https://www.geonames.org/ontology#A.ADM1,HN,14.5,-88.58333,None,None
Departamento de La Paz,https://www.geonames.org/ontology#A,https://www.geonames.org/ontology#A.ADM1,HN,14.08333,-87.91667,None,None
Bay Islands,https://www.geonames.org/ontology#A,https://www.geonames.org/ontology#A.ADM1,HN,16.09597,-86.93291,None,None
Departamento de Intibucá,https://www.geonames.org/ontology#A,https://www.geonames.org/ontology#A.ADM1,HN,14.33333,-88.16667,None,None
Departamento de Gracias a Dios,https://www.geonames.org/ontology#A,https://www.geonames.org/ontology#A.ADM1,HN,15.25,-84.33333,None,None
Departamento de Francisco Morazán,https://www.geonames.org/ontology#A,https://www.geonames.org/ontology#A.ADM1,HN,14.25,-87.16667,None,None
Departamento de El Paraíso,https://www.geonames.org/ontology#A,https://www.geonames.org/ontology#A.ADM1,HN,14.08333,-86.5,None,None
Departamento de Cortés,https://www.geonames.org/ontology#A,https://www.geonames.org/ontology#A.ADM1,HN,15.41667,-88,None,None
Departamento de Copán,https://www.geonames.org/ontology#A,https://www.geonames.org/ontology#A.ADM1,HN,14.91667,-88.91667,None,None
Departamento de Comayagua,https://www.geonames.org/ontology#A,https://www.geonames.org/ontology#A.ADM1,HN,14.58333,-87.66667,None,None
Departamento de Colón,https://www.geonames.org/ontology#A,https://www.geonames.org/ontology#A.ADM1,HN,15.75,-85.66667,None,None
Departamento de Choluteca,https://www.geonames.org/ontology#A,https://www.geonames.org/ontology#A.ADM1,HN,13.33333,-87.08333,None,None
Departamento de Atlántida,https://www.geonames.org/ontology#A,https://www.geonames.org/ontology#A.ADM1,HN,15.66667,-87,None,None
Departamento de Rivas,https://www.geonames.org/ontology#A,https://www.geonames.org/ontology#A.ADM1,NI,11.3,-85.75,None,None
Departamento de Río San Juan,https://www.geonames.org/ontology#A,https://www.geonames.org/ontology#A.ADM1,NI,11.33333,-84.58333,None,None
Departamento de Nueva Segovia,https://www.geonames.org/ontology#A,https://www.geonames.org/ontology#A.ADM1,NI,13.7,-86.16667,None,None
Departamento de Matagalpa,https://www.geonames.org/ontology#A,https://www.geonames.org/ontology#A.ADM1,NI,12.91667,-85.66667,None,None
Departamento de Masaya,https://www.geonames.org/ontology#A,https://www.geonames.org/ontology#A.ADM1,NI,12,-86.16667,None,None
Departamento de Managua,https://www.geonames.org/ontology#A,https://www.geonames.org/ontology#A.ADM1,NI,12,-86.41667,None,None
Departamento de Madriz,https://www.geonames.org/ontology#A,https://www.geonames.org/ontology#A.ADM1,NI,13.5,-86.41667,None,None
Departamento de León,https://www.geonames.org/ontology#A,https://www.geonames.org/ontology#A.ADM1,NI,12.58333,-86.58333,None,None
Departamento de Jinotega,https://www.geonames.org/ontology#A,https://www.geonames.org/ontology#A.ADM1,NI,13.75,-85.58333,None,None
Departamento de Granada,https://www.geonames.org/ontology#A,https://www.geonames.org/ontology#A.ADM1,NI,11.83333,-85.91667,None,None
Departamento de Estelí,https://www.geonames.org/ontology#A,https://www.geonames.org/ontology#A.ADM1,NI,13.16667,-86.33333,None,None
Departamento de Chontales,https://www.geonames.org/ontology#A,https://www.geonames.org/ontology#A.ADM1,NI,12.08333,-85.16667,None,None
Departamento de Chinandega,https://www.geonames.org/ontology#A,https://www.geonames.org/ontology#A.ADM1,NI,12.83333,-87.08333,None,None
Departamento de Carazo,https://www.geonames.org/ontology#A,https://www.geonames.org/ontology#A.ADM1,NI,11.75,-86.25,None,None
Departamento de Boaco,https://www.geonames.org/ontology#A,https://www.geonames.org/ontology#A.ADM1,NI,12.5,-85.5,None,None
Provincia de San José,https://www.geonames.org/ontology#A,https://www.geonames.org/ontology#A.ADM1,CR,9.66667,-84,None,None
Provincia de Puntarenas,https://www.geonames.org/ontology#A,https://www.geonames.org/ontology#A.ADM1,CR,9.97794,-84.83068,None,None
Provincia de Limón,https://www.geonames.org/ontology#A,https://www.geonames.org/ontology#A.ADM1,CR,10,-83.21667,None,None
Provincia de Heredia,https://www.geonames.org/ontology#A,https://www.geonames.org/ontology#A.ADM1,CR,10.33333,-84,None,None
Provincia de Guanacaste,https://www.geonames.org/ontology#A,https://www.geonames.org/ontology#A.ADM1,CR,10.5,-85.25,None,None
Provincia de Cartago,https://www.geonames.org/ontology#A,https://www.geonames.org/ontology#A.ADM1,CR,9.83333,-83.75,None,None
Provincia de Alajuela,https://www.geonames.org/ontology#A,https://www.geonames.org/ontology#A.ADM1,CR,10.5,-84.5,None,None
Zulia,https://www.geonames.org/ontology#A,https://www.geonames.org/ontology#A.ADM1,VE,10,-72.16667,None,None
Yaracuy,https://www.geonames.org/ontology#A,https://www.geonames.org/ontology#A.ADM1,VE,10.33974,-68.73734,None,None
Trujillo,https://www.geonames.org/ontology#A,https://www.geonames.org/ontology#A.ADM1,VE,9.43856,-70.50888,None,None
Táchira,https://www.geonames.org/ontology#A,https://www.geonames.org/ontology#A.ADM1,VE,7.83333,-72.08333,None,None
Sucre,https://www.geonames.org/ontology#A,https://www.geonames.org/ontology#A.ADM1,VE,10.41667,-63.5,None,None
Portuguesa,https://www.geonames.org/ontology#A,https://www.geonames.org/ontology#A.ADM1,VE,9.16667,-69.25,None,None
Nueva Esparta,https://www.geonames.org/ontology#A,https://www.geonames.org/ontology#A.ADM1,VE,11,-64,None,None
Monagas,https://www.geonames.org/ontology#A,https://www.geonames.org/ontology#A.ADM1,VE,9.33333,-63,None,None
Miranda,https://www.geonames.org/ontology#A,https://www.geonames.org/ontology#A.ADM1,VE,10.25,-66.41667,None,None
Mérida,https://www.geonames.org/ontology#A,https://www.geonames.org/ontology#A.ADM1,VE,8.5,-71.16667,None,None
Lara,https://www.geonames.org/ontology#A,https://www.geonames.org/ontology#A.ADM1,VE,10.16667,-69.83333,None,None
Guárico,https://www.geonames.org/ontology#A,https://www.geonames.org/ontology#A.ADM1,VE,8.66667,-66.58333,None,None
Dependencias Federales,https://www.geonames.org/ontology#A,https://www.geonames.org/ontology#A.ADM1,VE,10.92346,-65.30889,None,None
Distrito Federal,https://www.geonames.org/ontology#A,https://www.geonames.org/ontology#A.ADM1,VE,10.47639,-66.98333,None,None
Falcón,https://www.geonames.org/ontology#A,https://www.geonames.org/ontology#A.ADM1,VE,11,-69.83333,None,None
Delta Amacuro,https://www.geonames.org/ontology#A,https://www.geonames.org/ontology#A.ADM1,VE,8.75,-61.33333,None,None
Cojedes,https://www.geonames.org/ontology#A,https://www.geonames.org/ontology#A.ADM1,VE,9.33333,-68.33333,None,None
Carabobo,https://www.geonames.org/ontology#A,https://www.geonames.org/ontology#A.ADM1,VE,10.16667,-68.08333,None,None
Bolívar,https://www.geonames.org/ontology#A,https://www.geonames.org/ontology#A.ADM1,VE,6.33333,-63.5,None,None
Barinas,https://www.geonames.org/ontology#A,https://www.geonames.org/ontology#A.ADM1,VE,8.16667,-69.83333,None,None
Aragua,https://www.geonames.org/ontology#A,https://www.geonames.org/ontology#A.ADM1,VE,10,-67.16667,None,None
Apure,https://www.geonames.org/ontology#A,https://www.geonames.org/ontology#A.ADM1,VE,7.16667,-68.83333,None,None
Anzoátegui,https://www.geonames.org/ontology#A,https://www.geonames.org/ontology#A.ADM1,VE,9,-64.33333,None,None
Amazonas,https://www.geonames.org/ontology#A,https://www.geonames.org/ontology#A.ADM1,VE,3.5,-66,None,None
Provincia de Zamora-Chinchipe,https://www.geonames.org/ontology#A,https://www.geonames.org/ontology#A.ADM1,EC,-4.25,-78.83333,None,None
Provincia del Tungurahua,https://www.geonames.org/ontology#A,https://www.geonames.org/ontology#A.ADM1,EC,-1.25,-78.5,None,None
Provincia de Pichincha,https://www.geonames.org/ontology#A,https://www.geonames.org/ontology#A.ADM1,EC,-0.08333,-78.5,None,None
Provincia del Pastaza,https://www.geonames.org/ontology#A,https://www.geonames.org/ontology#A.ADM1,EC,-1.66667,-76.83333,None,None
Provincia de Napo,https://www.geonames.org/ontology#A,https://www.geonames.org/ontology#A.ADM1,EC,-0.62915,-77.83164,None,None
Provincia de Morona-Santiago,https://www.geonames.org/ontology#A,https://www.geonames.org/ontology#A.ADM1,EC,-2.5,-77.91667,None,None
Provincia de Manabí,https://www.geonames.org/ontology#A,https://www.geonames.org/ontology#A.ADM1,EC,-0.66667,-80.08333,None,None
Provincia de Los Ríos,https://www.geonames.org/ontology#A,https://www.geonames.org/ontology#A.ADM1,EC,-1.41667,-79.58333,None,None
Provincia de Loja,https://www.geonames.org/ontology#A,https://www.geonames.org/ontology#A.ADM1,EC,-4.16667,-79.5,None,None
Provincia de Imbabura,https://www.geonames.org/ontology#A,https://www.geonames.org/ontology#A.ADM1,EC,0.37631,-78.32371,None,None
Provincia del Guayas,https://www.geonames.org/ontology#A,https://www.geonames.org/ontology#A.ADM1,EC,-2,-79.83333,None,None
Provincia de Galápagos,https://www.geonames.org/ontology#A,https://www.geonames.org/ontology#A.ADM1,EC,-0.67015,-90.87341,None,None
Provincia de Esmeraldas,https://www.geonames.org/ontology#A,https://www.geonames.org/ontology#A.ADM1,EC,0.83333,-79.25,None,None
Provincia de El Oro,https://www.geonames.org/ontology#A,https://www.geonames.org/ontology#A.ADM1,EC,-3.5,-79.83333,None,None
Provincia de Cotopaxi,https://www.geonames.org/ontology#A,https://www.geonames.org/ontology#A.ADM1,EC,-0.83333,-78.83333,None,None
Provincia del Chimborazo,https://www.geonames.org/ontology#A,https://www.geonames.org/ontology#A.ADM1,EC,-1.91667,-78.75,None,None
Provincia del Carchi,https://www.geonames.org/ontology#A,https://www.geonames.org/ontology#A.ADM1,EC,0.75,-78.08333,None,None
Provincia del Cañar,https://www.geonames.org/ontology#A,https://www.geonames.org/ontology#A.ADM1,EC,-2.5,-79,None,None
Provincia de Bolívar,https://www.geonames.org/ontology#A,https://www.geonames.org/ontology#A.ADM1,EC,-1.58333,-79.08333,None,None
Provincia del Azuay,https://www.geonames.org/ontology#A,https://www.geonames.org/ontology#A.ADM1,EC,-3.08333,-79.33333,None,None
Roraima,https://www.geonames.org/ontology#A,https://www.geonames.org/ontology#A.ADM1,BR,2.25,-61.25,None,None
Amazonas,https://www.geonames.org/ontology#A,https://www.geonames.org/ontology#A.ADM1,BR,-3.75,-64.5,None,None
Acre,https://www.geonames.org/ontology#A,https://www.geonames.org/ontology#A.ADM1,BR,-9,-70,None,None
Departamento del Vichada,https://www.geonames.org/ontology#A,https://www.geonames.org/ontology#A.ADM1,CO,5,-69.5,None,None
Departamento del Vaupés,https://www.geonames.org/ontology#A,https://www.geonames.org/ontology#A.ADM1,CO,0.75,-70.75,None,None
Departamento del Valle del Cauca,https://www.geonames.org/ontology#A,https://www.geonames.org/ontology#A.ADM1,CO,3.75,-76.5,None,None
Departamento de Tolima,https://www.geonames.org/ontology#A,https://www.geonames.org/ontology#A.ADM1,CO,4,-75.25,None,None
Departamento de Sucre,https://www.geonames.org/ontology#A,https://www.geonames.org/ontology#A.ADM1,CO,9,-75,None,None
Departamento de Santander,https://www.geonames.org/ontology#A,https://www.geonames.org/ontology#A.ADM1,CO,6.83333,-73.41667,None,None
San Andres y Providencia,https://www.geonames.org/ontology#A,https://www.geonames.org/ontology#A.ADM1,CO,12.52449,-81.71983,None,None
Departamento de Risaralda,https://www.geonames.org/ontology#A,https://www.geonames.org/ontology#A.ADM1,CO,5,-76,None,None
Quindío Department,https://www.geonames.org/ontology#A,https://www.geonames.org/ontology#A.ADM1,CO,4.5,-75.66667,None,None
Departamento del Putumayo,https://www.geonames.org/ontology#A,https://www.geonames.org/ontology#A.ADM1,CO,0.5,-76,None,None
Departamento de Norte de Santander,https://www.geonames.org/ontology#A,https://www.geonames.org/ontology#A.ADM1,CO,8,-73,None,None
Departamento de Nariño,https://www.geonames.org/ontology#A,https://www.geonames.org/ontology#A.ADM1,CO,1.5,-78,None,None
Departamento del Meta,https://www.geonames.org/ontology#A,https://www.geonames.org/ontology#A.ADM1,CO,3.5,-73,None,None
Departamento del Magdalena,https://www.geonames.org/ontology#A,https://www.geonames.org/ontology#A.ADM1,CO,10,-74.5,None,None
Departamento de La Guajira,https://www.geonames.org/ontology#A,https://www.geonames.org/ontology#A.ADM1,CO,11.5,-72.5,None,None
Departamento del Huila,https://www.geonames.org/ontology#A,https://www.geonames.org/ontology#A.ADM1,CO,2.5,-75.58333,None,None
Departamento del Guaviare,https://www.geonames.org/ontology#A,https://www.geonames.org/ontology#A.ADM1,CO,1.91667,-72,None,None
Departamento del Guainía,https://www.geonames.org/ontology#A,https://www.geonames.org/ontology#A.ADM1,CO,2.5,-69,None,None
Cundinamarca,https://www.geonames.org/ontology#A,https://www.geonames.org/ontology#A.ADM1,CO,5,-74.16667,None,None
Departamento de Córdoba,https://www.geonames.org/ontology#A,https://www.geonames.org/ontology#A.ADM1,CO,8.33333,-75.66667,None,None
Departamento del Chocó,https://www.geonames.org/ontology#A,https://www.geonames.org/ontology#A.ADM1,CO,6,-77,None,None
Departamento del Cesar,https://www.geonames.org/ontology#A,https://www.geonames.org/ontology#A.ADM1,CO,9.33333,-73.5,None,None
Departamento del Cauca,https://www.geonames.org/ontology#A,https://www.geonames.org/ontology#A.ADM1,CO,2.5,-76.83333,None,None
Departamento de Casanare,https://www.geonames.org/ontology#A,https://www.geonames.org/ontology#A.ADM1,CO,5.5,-71.5,None,None
Departamento del Caquetá,https://www.geonames.org/ontology#A,https://www.geonames.org/ontology#A.ADM1,CO,0.75,-74,None,None
Departamento de Caldas,https://www.geonames.org/ontology#A,https://www.geonames.org/ontology#A.ADM1,CO,5.26667,-75.33333,None,None
Departamento de Boyacá,https://www.geonames.org/ontology#A,https://www.geonames.org/ontology#A.ADM1,CO,5.66667,-73,None,None
Departamento de Bolívar,https://www.geonames.org/ontology#A,https://www.geonames.org/ontology#A.ADM1,CO,9,-74.33333,None,None
Bogota D.C.,https://www.geonames.org/ontology#A,https://www.geonames.org/ontology#A.ADM1,CO,4.25,-74.18333,None,None
Atlántico,https://www.geonames.org/ontology#A,https://www.geonames.org/ontology#A.ADM1,CO,10.75,-75,None,None
Departamento de Arauca,https://www.geonames.org/ontology#A,https://www.geonames.org/ontology#A.ADM1,CO,6.66667,-71,None,None
Antioquia,https://www.geonames.org/ontology#A,https://www.geonames.org/ontology#A.ADM1,CO,7,-75.5,None,None
Amazonas,https://www.geonames.org/ontology#A,https://www.geonames.org/ontology#A.ADM1,CO,-1.16667,-71.5,None,None
Ucayali,https://www.geonames.org/ontology#A,https://www.geonames.org/ontology#A.ADM1,PE,-9.75,-73.5,None,None
Tumbes,https://www.geonames.org/ontology#A,https://www.geonames.org/ontology#A.ADM1,PE,-3.83333,-80.5,None,None
Región de San Martín,https://www.geonames.org/ontology#A,https://www.geonames.org/ontology#A.ADM1,PE,-7,-76.83333,None,None
Piura,https://www.geonames.org/ontology#A,https://www.geonames.org/ontology#A.ADM1,PE,-5,-80.33333,None,None
Loreto,https://www.geonames.org/ontology#A,https://www.geonames.org/ontology#A.ADM1,PE,-4,-74.5,None,None
Lambayeque,https://www.geonames.org/ontology#A,https://www.geonames.org/ontology#A.ADM1,PE,-6.33333,-80,None,None
La Libertad,https://www.geonames.org/ontology#A,https://www.geonames.org/ontology#A.ADM1,PE,-8,-78.5,None,None
Región de Huánuco,https://www.geonames.org/ontology#A,https://www.geonames.org/ontology#A.ADM1,PE,-9.5,-76,None,None
Cajamarca,https://www.geonames.org/ontology#A,https://www.geonames.org/ontology#A.ADM1,PE,-6.25,-78.83333,None,None
Ancash,https://www.geonames.org/ontology#A,https://www.geonames.org/ontology#A.ADM1,PE,-9.5,-77.75,None,None
Amazonas,https://www.geonames.org/ontology#A,https://www.geonames.org/ontology#A.ADM1,PE,-5,-78.23333,None,None
Provincia de Veraguas,https://www.geonames.org/ontology#A,https://www.geonames.org/ontology#A.ADM1,PA,8.25,-81.13333,None,None
Guna Yala,https://www.geonames.org/ontology#A,https://www.geonames.org/ontology#A.ADM1,PA,9.25,-78.25,None,None
Provincia de Panamá,https://www.geonames.org/ontology#A,https://www.geonames.org/ontology#A.ADM1,PA,9.08333,-78.9,None,None
Provincia de Los Santos,https://www.geonames.org/ontology#A,https://www.geonames.org/ontology#A.ADM1,PA,7.58333,-80.33333,None,None
Provincia de Herrera,https://www.geonames.org/ontology#A,https://www.geonames.org/ontology#A.ADM1,PA,7.83333,-80.75,None,None
Provincia del Darién,https://www.geonames.org/ontology#A,https://www.geonames.org/ontology#A.ADM1,PA,8.08333,-77.88333,None,None
Provincia de Colón,https://www.geonames.org/ontology#A,https://www.geonames.org/ontology#A.ADM1,PA,9.16667,-80,None,None
Provincia de Coclé,https://www.geonames.org/ontology#A,https://www.geonames.org/ontology#A.ADM1,PA,8.56667,-80.41667,None,None
Provincia de Chiriquí,https://www.geonames.org/ontology#A,https://www.geonames.org/ontology#A.ADM1,PA,8.5,-82.41667,None,None
Provincia de Bocas del Toro,https://www.geonames.org/ontology#A,https://www.geonames.org/ontology#A.ADM1,PA,9.25,-82.65,None,None
Sud-Est,https://www.geonames.org/ontology#A,https://www.geonames.org/ontology#A.ADM1,HT,18.3,-72.4,None,None
Sud,https://www.geonames.org/ontology#A,https://www.geonames.org/ontology#A.ADM1,HT,18.3,-73.73333,None,None
Département de l'Ouest,https://www.geonames.org/ontology#A,https://www.geonames.org/ontology#A.ADM1,HT,18.66381,-72.29141,None,None
Nord-Ouest,https://www.geonames.org/ontology#A,https://www.geonames.org/ontology#A.ADM1,HT,19.83333,-73,None,None
Département du Nord-Est,https://www.geonames.org/ontology#A,https://www.geonames.org/ontology#A.ADM1,HT,19.48897,-71.85713,None,None
Nord,https://www.geonames.org/ontology#A,https://www.geonames.org/ontology#A.ADM1,HT,19.6,-72.3,None,None
Grandans,https://www.geonames.org/ontology#A,https://www.geonames.org/ontology#A.ADM1,HT,18.5,-74.08333,None,None
Centre,https://www.geonames.org/ontology#A,https://www.geonames.org/ontology#A.ADM1,HT,19,-72,None,None
Département de l'Artibonite,https://www.geonames.org/ontology#A,https://www.geonames.org/ontology#A.ADM1,HT,19.33333,-72.5,None,None
Provincia de Sucumbíos,https://www.geonames.org/ontology#A,https://www.geonames.org/ontology#A.ADM1,EC,0.1,-76.86667,None,None
Provincia de Francisco de Orellana,https://www.geonames.org/ontology#A,https://www.geonames.org/ontology#A.ADM1,EC,-0.75,-76.41667,None,None
North Caribbean Coast,https://www.geonames.org/ontology#A,https://www.geonames.org/ontology#A.ADM1,NI,14,-84.25,None,None
South Caribbean Coast,https://www.geonames.org/ontology#A,https://www.geonames.org/ontology#A.ADM1,NI,11.84585,-84.14978,None,None
Vargas,https://www.geonames.org/ontology#A,https://www.geonames.org/ontology#A.ADM1,VE,10.56667,-66.9,None,None
Tucuman,https://www.geonames.org/ontology#A,https://www.geonames.org/ontology#A.ADM1,AR,-27,-65.5,None,None
Tierra del Fuego,https://www.geonames.org/ontology#A,https://www.geonames.org/ontology#A.ADM1,AR,-54.5,-67,None,None
Santiago del Estero,https://www.geonames.org/ontology#A,https://www.geonames.org/ontology#A.ADM1,AR,-28,-63.5,None,None
Santa Fe,https://www.geonames.org/ontology#A,https://www.geonames.org/ontology#A.ADM1,AR,-31,-61,None,None
Santa Cruz,https://www.geonames.org/ontology#A,https://www.geonames.org/ontology#A.ADM1,AR,-49,-70,None,None
San Luis,https://www.geonames.org/ontology#A,https://www.geonames.org/ontology#A.ADM1,AR,-34,-66,None,None
San Juan,https://www.geonames.org/ontology#A,https://www.geonames.org/ontology#A.ADM1,AR,-31,-69,None,None
Salta,https://www.geonames.org/ontology#A,https://www.geonames.org/ontology#A.ADM1,AR,-24.75806,-65.43457,None,None
Rio Negro,https://www.geonames.org/ontology#A,https://www.geonames.org/ontology#A.ADM1,AR,-40,-67,None,None
Neuquen,https://www.geonames.org/ontology#A,https://www.geonames.org/ontology#A.ADM1,AR,-39,-70,None,None
Mendoza,https://www.geonames.org/ontology#A,https://www.geonames.org/ontology#A.ADM1,AR,-34.5,-68.5,None,None
La Rioja,https://www.geonames.org/ontology#A,https://www.geonames.org/ontology#A.ADM1,AR,-29.58333,-67,None,None
La Pampa,https://www.geonames.org/ontology#A,https://www.geonames.org/ontology#A.ADM1,AR,-37,-66,None,None
Jujuy,https://www.geonames.org/ontology#A,https://www.geonames.org/ontology#A.ADM1,AR,-23,-66,None,None
Cordoba,https://www.geonames.org/ontology#A,https://www.geonames.org/ontology#A.ADM1,AR,-32,-64,None,None
Chubut,https://www.geonames.org/ontology#A,https://www.geonames.org/ontology#A.ADM1,AR,-44,-69,None,None
Chaco,https://www.geonames.org/ontology#A,https://www.geonames.org/ontology#A.ADM1,AR,-26.33333,-60.5,None,None
Catamarca,https://www.geonames.org/ontology#A,https://www.geonames.org/ontology#A.ADM1,AR,-27,-67,None,None
Departamento de Boquerón,https://www.geonames.org/ontology#A,https://www.geonames.org/ontology#A.ADM1,PY,-22.64105,-61.07381,None,None
Región de Valparaíso,https://www.geonames.org/ontology#A,https://www.geonames.org/ontology#A.ADM1,CL,-32.75,-71.33333,None,None
Tarapacá,https://www.geonames.org/ontology#A,https://www.geonames.org/ontology#A.ADM1,CL,-20,-69.33333,None,None
Santiago Metropolitan,https://www.geonames.org/ontology#A,https://www.geonames.org/ontology#A.ADM1,CL,-33.47269,-70.64724,None,None
Maule Region,https://www.geonames.org/ontology#A,https://www.geonames.org/ontology#A.ADM1,CL,-35.5,-71.5,None,None
Los Lagos Region,https://www.geonames.org/ontology#A,https://www.geonames.org/ontology#A.ADM1,CL,-42.59889,-73.96048,None,None
O'Higgins Region,https://www.geonames.org/ontology#A,https://www.geonames.org/ontology#A.ADM1,CL,-34.5,-71,None,None
Coquimbo Region,https://www.geonames.org/ontology#A,https://www.geonames.org/ontology#A.ADM1,CL,-30.75,-71,None,None
Región del Biobío,https://www.geonames.org/ontology#A,https://www.geonames.org/ontology#A.ADM1,CL,-37.375,-72.45,None,None
Atacama,https://www.geonames.org/ontology#A,https://www.geonames.org/ontology#A.ADM1,CL,-27.5,-70,None,None
Región de la Araucanía,https://www.geonames.org/ontology#A,https://www.geonames.org/ontology#A.ADM1,CL,-38.5,-72,None,None
Antofagasta,https://www.geonames.org/ontology#A,https://www.geonames.org/ontology#A.ADM1,CL,-23.5,-69,None,None
Aysén,https://www.geonames.org/ontology#A,https://www.geonames.org/ontology#A.ADM1,CL,-46.5,-73.5,None,None
Departamento de Tarija,https://www.geonames.org/ontology#A,https://www.geonames.org/ontology#A.ADM1,BO,-21.5,-64,None,None
Departamento de Santa Cruz,https://www.geonames.org/ontology#A,https://www.geonames.org/ontology#A.ADM1,BO,-17.5,-61.5,None,None
Departamento de Potosí,https://www.geonames.org/ontology#A,https://www.geonames.org/ontology#A.ADM1,BO,-20.66667,-67,None,None
Departamento de Pando,https://www.geonames.org/ontology#A,https://www.geonames.org/ontology#A.ADM1,BO,-11.33333,-67.66667,None,None
Oruro,https://www.geonames.org/ontology#A,https://www.geonames.org/ontology#A.ADM1,BO,-18.66667,-67.5,None,None
Departamento de La Paz,https://www.geonames.org/ontology#A,https://www.geonames.org/ontology#A.ADM1,BO,-15.5,-68,None,None
Departamento de Cochabamba,https://www.geonames.org/ontology#A,https://www.geonames.org/ontology#A.ADM1,BO,-17.5,-65.66667,None,None
Departamento de Chuquisaca,https://www.geonames.org/ontology#A,https://www.geonames.org/ontology#A.ADM1,BO,-20,-64.33333,None,None
El Beni,https://www.geonames.org/ontology#A,https://www.geonames.org/ontology#A.ADM1,BO,-14,-65.5,None,None
Rondônia,https://www.geonames.org/ontology#A,https://www.geonames.org/ontology#A.ADM1,BR,-11,-63,None,None
Tacna,https://www.geonames.org/ontology#A,https://www.geonames.org/ontology#A.ADM1,PE,-17.66667,-70.33333,None,None
Puno,https://www.geonames.org/ontology#A,https://www.geonames.org/ontology#A.ADM1,PE,-15,-70,None,None
Pasco,https://www.geonames.org/ontology#A,https://www.geonames.org/ontology#A.ADM1,PE,-10.5,-75.25,None,None
Departamento de Moquegua,https://www.geonames.org/ontology#A,https://www.geonames.org/ontology#A.ADM1,PE,-16.83662,-70.91992,None,None
Madre de Dios,https://www.geonames.org/ontology#A,https://www.geonames.org/ontology#A.ADM1,PE,-12,-70.25,None,None
Lima,https://www.geonames.org/ontology#A,https://www.geonames.org/ontology#A.ADM1,PE,-12,-76.83333,None,None
Lima region,https://www.geonames.org/ontology#A,https://www.geonames.org/ontology#A.ADM1,PE,-11.85,-76.45,None,None
Junin,https://www.geonames.org/ontology#A,https://www.geonames.org/ontology#A.ADM1,PE,-11.5,-75,None,None
Ica,https://www.geonames.org/ontology#A,https://www.geonames.org/ontology#A.ADM1,PE,-14.3325,-75.49972,None,None
Huancavelica,https://www.geonames.org/ontology#A,https://www.geonames.org/ontology#A.ADM1,PE,-13,-75,None,None
Cusco,https://www.geonames.org/ontology#A,https://www.geonames.org/ontology#A.ADM1,PE,-13,-72.25,None,None
Callao,https://www.geonames.org/ontology#A,https://www.geonames.org/ontology#A.ADM1,PE,-12.05139,-77.125,None,None
Ayacucho,https://www.geonames.org/ontology#A,https://www.geonames.org/ontology#A.ADM1,PE,-14,-74.25,None,None
Arequipa,https://www.geonames.org/ontology#A,https://www.geonames.org/ontology#A.ADM1,PE,-16,-72.25,None,None
Apurimac,https://www.geonames.org/ontology#A,https://www.geonames.org/ontology#A.ADM1,PE,-14,-73,None,None
Zacatecas,https://www.geonames.org/ontology#A,https://www.geonames.org/ontology#A.ADM1,MX,23.25,-103,None,None
Sonora,https://www.geonames.org/ontology#A,https://www.geonames.org/ontology#A.ADM1,MX,29.66667,-110.5,None,None
Sinaloa,https://www.geonames.org/ontology#A,https://www.geonames.org/ontology#A.ADM1,MX,25,-107.5,None,None
San Luis Potosí,https://www.geonames.org/ontology#A,https://www.geonames.org/ontology#A.ADM1,MX,22.5,-100.5,None,None
Nayarit,https://www.geonames.org/ontology#A,https://www.geonames.org/ontology#A.ADM1,MX,21.83333,-104.83333,None,None
Michoacán,https://www.geonames.org/ontology#A,https://www.geonames.org/ontology#A.ADM1,MX,19.16667,-101.83333,None,None
Jalisco,https://www.geonames.org/ontology#A,https://www.geonames.org/ontology#A.ADM1,MX,20.33333,-103.66667,None,None
Guanajuato,https://www.geonames.org/ontology#A,https://www.geonames.org/ontology#A.ADM1,MX,21,-101,None,None
Durango,https://www.geonames.org/ontology#A,https://www.geonames.org/ontology#A.ADM1,MX,24.83333,-104.83333,None,None
Colima,https://www.geonames.org/ontology#A,https://www.geonames.org/ontology#A.ADM1,MX,19.13333,-103.9,None,None
Coahuila,https://www.geonames.org/ontology#A,https://www.geonames.org/ontology#A.ADM1,MX,27.33333,-102,None,None
Chihuahua,https://www.geonames.org/ontology#A,https://www.geonames.org/ontology#A.ADM1,MX,28.75,-106.25,None,None
Baja California Sur,https://www.geonames.org/ontology#A,https://www.geonames.org/ontology#A.ADM1,MX,25.83333,-111.83333,None,None
Baja California,https://www.geonames.org/ontology#A,https://www.geonames.org/ontology#A.ADM1,MX,30,-115,None,None
Aguascalientes,https://www.geonames.org/ontology#A,https://www.geonames.org/ontology#A.ADM1,MX,22,-102.36667,None,None
Region of Magallanes,https://www.geonames.org/ontology#A,https://www.geonames.org/ontology#A.ADM1,CL,-52.50026,-73.00067,None,None
Arkansas,https://www.geonames.org/ontology#A,https://www.geonames.org/ontology#A.ADM1,US,34.75037,-92.50044,None,None
Washington, D.C.,https://www.geonames.org/ontology#A,https://www.geonames.org/ontology#A.ADM1,US,38.91706,-77.00025,None,None
Delaware,https://www.geonames.org/ontology#A,https://www.geonames.org/ontology#A.ADM1,US,39.00039,-75.49992,None,None
Florida,https://www.geonames.org/ontology#A,https://www.geonames.org/ontology#A.ADM1,US,28.75054,-82.5001,None,None
Georgia,https://www.geonames.org/ontology#A,https://www.geonames.org/ontology#A.ADM1,US,32.75042,-83.50018,None,None
Kansas,https://www.geonames.org/ontology#A,https://www.geonames.org/ontology#A.ADM1,US,38.50029,-98.50063,None,None
Louisiana,https://www.geonames.org/ontology#A,https://www.geonames.org/ontology#A.ADM1,US,31.00047,-92.0004,None,None
Maryland,https://www.geonames.org/ontology#A,https://www.geonames.org/ontology#A.ADM1,US,39.00039,-76.74997,None,None
Missouri,https://www.geonames.org/ontology#A,https://www.geonames.org/ontology#A.ADM1,US,38.25031,-92.50046,None,None
Mississippi,https://www.geonames.org/ontology#A,https://www.geonames.org/ontology#A.ADM1,US,32.75041,-89.75036,None,None
North Carolina,https://www.geonames.org/ontology#A,https://www.geonames.org/ontology#A.ADM1,US,35.50069,-80.00032,None,None
Oklahoma,https://www.geonames.org/ontology#A,https://www.geonames.org/ontology#A.ADM1,US,35.49209,-97.50328,None,None
Adjuntas,https://www.geonames.org/ontology#A,https://www.geonames.org/ontology#A.ADM1,PR,18.16274,-66.72212,None,None
Aguada,https://www.geonames.org/ontology#A,https://www.geonames.org/ontology#A.ADM1,PR,18.3605,-67.17463,None,None
Aguadilla,https://www.geonames.org/ontology#A,https://www.geonames.org/ontology#A.ADM1,PR,18.42745,-67.15407,None,None
Aguas Buenas,https://www.geonames.org/ontology#A,https://www.geonames.org/ontology#A.ADM1,PR,18.2569,-66.10294,None,None
Aibonito,https://www.geonames.org/ontology#A,https://www.geonames.org/ontology#A.ADM1,PR,18.13996,-66.266,None,None
Añasco,https://www.geonames.org/ontology#A,https://www.geonames.org/ontology#A.ADM1,PR,18.28134,-67.1274,None,None
Arecibo,https://www.geonames.org/ontology#A,https://www.geonames.org/ontology#A.ADM1,PR,18.40411,-66.67462,None,None
Arroyo,https://www.geonames.org/ontology#A,https://www.geonames.org/ontology#A.ADM1,PR,18.0008,-66.05794,None,None
Barceloneta,https://www.geonames.org/ontology#A,https://www.geonames.org/ontology#A.ADM1,PR,18.45633,-66.54128,None,None
Barranquitas,https://www.geonames.org/ontology#A,https://www.geonames.org/ontology#A.ADM1,PR,18.20357,-66.31211,None,None
Bayamón,https://www.geonames.org/ontology#A,https://www.geonames.org/ontology#A.ADM1,PR,18.35217,-66.17044,None,None
Cabo Rojo,https://www.geonames.org/ontology#A,https://www.geonames.org/ontology#A.ADM1,PR,18.05635,-67.14685,None,None
Caguas,https://www.geonames.org/ontology#A,https://www.geonames.org/ontology#A.ADM1,PR,18.21329,-66.04961,None,None
Camuy,https://www.geonames.org/ontology#A,https://www.geonames.org/ontology#A.ADM1,PR,18.42578,-66.85934,None,None
Canóvanas,https://www.geonames.org/ontology#A,https://www.geonames.org/ontology#A.ADM1,PR,18.33828,-65.88711,None,None
Carolina,https://www.geonames.org/ontology#A,https://www.geonames.org/ontology#A.ADM1,PR,18.37578,-65.95794,None,None
Cataño,https://www.geonames.org/ontology#A,https://www.geonames.org/ontology#A.ADM1,PR,18.4355,-66.13711,None,None
Cayey,https://www.geonames.org/ontology#A,https://www.geonames.org/ontology#A.ADM1,PR,18.10357,-66.15378,None,None
Ceiba,https://www.geonames.org/ontology#A,https://www.geonames.org/ontology#A.ADM1,PR,18.26051,-65.67183,None,None
Ciales,https://www.geonames.org/ontology#A,https://www.geonames.org/ontology#A.ADM1,PR,18.29162,-66.51628,None,None
Cidra,https://www.geonames.org/ontology#A,https://www.geonames.org/ontology#A.ADM1,PR,18.17579,-66.16211,None,None
Coamo,https://www.geonames.org/ontology#A,https://www.geonames.org/ontology#A.ADM1,PR,18.09802,-66.36211,None,None
Comerío,https://www.geonames.org/ontology#A,https://www.geonames.org/ontology#A.ADM1,PR,18.22718,-66.22183,None,None
Corozal,https://www.geonames.org/ontology#A,https://www.geonames.org/ontology#A.ADM1,PR,18.30912,-66.326,None,None
Culebra,https://www.geonames.org/ontology#A,https://www.geonames.org/ontology#A.ADM1,PR,18.31884,-65.2871,None,None
Dorado,https://www.geonames.org/ontology#A,https://www.geonames.org/ontology#A.ADM1,PR,18.43967,-66.28295,None,None
Fajardo,https://www.geonames.org/ontology#A,https://www.geonames.org/ontology#A.ADM1,PR,18.31051,-65.676,None,None
Florida,https://www.geonames.org/ontology#A,https://www.geonames.org/ontology#A.ADM1,PR,18.36051,-66.56212,None,None
Guánica,https://www.geonames.org/ontology#A,https://www.geonames.org/ontology#A.ADM1,PR,17.9883,-66.91212,None,None
Guayama,https://www.geonames.org/ontology#A,https://www.geonames.org/ontology#A.ADM1,PR,18.01663,-66.13072,None,None
Guayanilla,https://www.geonames.org/ontology#A,https://www.geonames.org/ontology#A.ADM1,PR,18.05413,-66.7899,None,None
Guaynabo,https://www.geonames.org/ontology#A,https://www.geonames.org/ontology#A.ADM1,PR,18.34106,-66.11628,None,None
Gurabo,https://www.geonames.org/ontology#A,https://www.geonames.org/ontology#A.ADM1,PR,18.27162,-65.97183,None,None
Hatillo,https://www.geonames.org/ontology#A,https://www.geonames.org/ontology#A.ADM1,PR,18.40773,-66.79323,None,None
Hormigueros,https://www.geonames.org/ontology#A,https://www.geonames.org/ontology#A.ADM1,PR,18.14162,-67.11629,None,None
Humacao,https://www.geonames.org/ontology#A,https://www.geonames.org/ontology#A.ADM1,PR,18.14802,-65.81211,None,None
Isabela,https://www.geonames.org/ontology#A,https://www.geonames.org/ontology#A.ADM1,PR,18.50078,-67.02435,None,None
Jayuya,https://www.geonames.org/ontology#A,https://www.geonames.org/ontology#A.ADM1,PR,18.21857,-66.59156,None,None
Juana Díaz,https://www.geonames.org/ontology#A,https://www.geonames.org/ontology#A.ADM1,PR,18.04802,-66.49267,None,None
Juncos,https://www.geonames.org/ontology#A,https://www.geonames.org/ontology#A.ADM1,PR,18.22746,-65.921,None,None
Lajas,https://www.geonames.org/ontology#A,https://www.geonames.org/ontology#A.ADM1,PR,18.0133,-67.0399,None,None
Lares,https://www.geonames.org/ontology#A,https://www.geonames.org/ontology#A.ADM1,PR,18.27023,-66.86907,None,None
Las Marías,https://www.geonames.org/ontology#A,https://www.geonames.org/ontology#A.ADM1,PR,18.25087,-66.9924,None,None
Las Piedras,https://www.geonames.org/ontology#A,https://www.geonames.org/ontology#A.ADM1,PR,18.18829,-65.87044,None,None
Loíza,https://www.geonames.org/ontology#A,https://www.geonames.org/ontology#A.ADM1,PR,18.43411,-65.89266,None,None
Luquillo,https://www.geonames.org/ontology#A,https://www.geonames.org/ontology#A.ADM1,PR,18.33967,-65.72461,None,None
Manatí,https://www.geonames.org/ontology#A,https://www.geonames.org/ontology#A.ADM1,PR,18.41884,-66.49267,None,None
Maricao,https://www.geonames.org/ontology#A,https://www.geonames.org/ontology#A.ADM1,PR,18.17301,-66.94546,None,None
Maunabo,https://www.geonames.org/ontology#A,https://www.geonames.org/ontology#A.ADM1,PR,18.01691,-65.92738,None,None
Mayagüez,https://www.geonames.org/ontology#A,https://www.geonames.org/ontology#A.ADM1,PR,18.20496,-67.1024,None,None
Moca,https://www.geonames.org/ontology#A,https://www.geonames.org/ontology#A.ADM1,PR,18.3855,-67.08435,None,None
Morovis,https://www.geonames.org/ontology#A,https://www.geonames.org/ontology#A.ADM1,PR,18.31884,-66.41767,None,None
Naguabo,https://www.geonames.org/ontology#A,https://www.geonames.org/ontology#A.ADM1,PR,18.23135,-65.75988,None,None
Naranjito,https://www.geonames.org/ontology#A,https://www.geonames.org/ontology#A.ADM1,PR,18.28968,-66.25517,None,None
Orocovis,https://www.geonames.org/ontology#A,https://www.geonames.org/ontology#A.ADM1,PR,18.21885,-66.43712,None,None
Patillas,https://www.geonames.org/ontology#A,https://www.geonames.org/ontology#A.ADM1,PR,18.04163,-66.01766,None,None
Peñuelas,https://www.geonames.org/ontology#A,https://www.geonames.org/ontology#A.ADM1,PR,18.07024,-66.71767,None,None
Ponce,https://www.geonames.org/ontology#A,https://www.geonames.org/ontology#A.ADM1,PR,18.07302,-66.61851,None,None
Rincón,https://www.geonames.org/ontology#A,https://www.geonames.org/ontology#A.ADM1,PR,18.33967,-67.23713,None,None
Quebradillas,https://www.geonames.org/ontology#A,https://www.geonames.org/ontology#A.ADM1,PR,18.43967,-66.92462,None,None
Río Grande,https://www.geonames.org/ontology#A,https://www.geonames.org/ontology#A.ADM1,PR,18.34162,-65.81766,None,None
Sabana Grande,https://www.geonames.org/ontology#A,https://www.geonames.org/ontology#A.ADM1,PR,18.09385,-66.94962,None,None
Salinas,https://www.geonames.org/ontology#A,https://www.geonames.org/ontology#A.ADM1,PR,18.01746,-66.25378,None,None
San Germán,https://www.geonames.org/ontology#A,https://www.geonames.org/ontology#A.ADM1,PR,18.11468,-67.03573,None,None
San Juan,https://www.geonames.org/ontology#A,https://www.geonames.org/ontology#A.ADM1,PR,18.45095,-66.09169,None,None
San Lorenzo,https://www.geonames.org/ontology#A,https://www.geonames.org/ontology#A.ADM1,PR,18.15496,-65.97461,None,None
San Sebastián,https://www.geonames.org/ontology#A,https://www.geonames.org/ontology#A.ADM1,PR,18.32912,-66.97462,None,None
Santa Isabel,https://www.geonames.org/ontology#A,https://www.geonames.org/ontology#A.ADM1,PR,17.99663,-66.38711,None,None
Toa Alta,https://www.geonames.org/ontology#A,https://www.geonames.org/ontology#A.ADM1,PR,18.36606,-66.25378,None,None
Toa Baja,https://www.geonames.org/ontology#A,https://www.geonames.org/ontology#A.ADM1,PR,18.43176,-66.21291,None,None
Trujillo Alto,https://www.geonames.org/ontology#A,https://www.geonames.org/ontology#A.ADM1,PR,18.34162,-66.00517,None,None
Utuado,https://www.geonames.org/ontology#A,https://www.geonames.org/ontology#A.ADM1,PR,18.27301,-66.69962,None,None
Vega Alta,https://www.geonames.org/ontology#A,https://www.geonames.org/ontology#A.ADM1,PR,18.4105,-66.33295,None,None
Vega Baja,https://www.geonames.org/ontology#A,https://www.geonames.org/ontology#A.ADM1,PR,18.42578,-66.39961,None,None
Villalba,https://www.geonames.org/ontology#A,https://www.geonames.org/ontology#A.ADM1,PR,18.12913,-66.47739,None,None
Yabucoa,https://www.geonames.org/ontology#A,https://www.geonames.org/ontology#A.ADM1,PR,18.07302,-65.88711,None,None
Yauco,https://www.geonames.org/ontology#A,https://www.geonames.org/ontology#A.ADM1,PR,18.07857,-66.85518,None,None
Vieques,https://www.geonames.org/ontology#A,https://www.geonames.org/ontology#A.ADM1,PR,18.12913,-65.4371,None,None
South Carolina,https://www.geonames.org/ontology#A,https://www.geonames.org/ontology#A.ADM1,US,34.00043,-81.00009,None,None
Tennessee,https://www.geonames.org/ontology#A,https://www.geonames.org/ontology#A.ADM1,US,35.75035,-86.25027,None,None
Texas,https://www.geonames.org/ontology#A,https://www.geonames.org/ontology#A.ADM1,US,31.25044,-99.25061,None,None
West Virginia,https://www.geonames.org/ontology#A,https://www.geonames.org/ontology#A.ADM1,US,38.50038,-80.50009,None,None
Alabama,https://www.geonames.org/ontology#A,https://www.geonames.org/ontology#A.ADM1,US,32.75041,-86.75026,None,None
Connecticut,https://www.geonames.org/ontology#A,https://www.geonames.org/ontology#A.ADM1,US,41.66704,-72.66648,None,None
Iowa,https://www.geonames.org/ontology#A,https://www.geonames.org/ontology#A.ADM1,US,42.00027,-93.50049,None,None
Illinois,https://www.geonames.org/ontology#A,https://www.geonames.org/ontology#A.ADM1,US,40.00032,-89.25037,None,None
Indiana,https://www.geonames.org/ontology#A,https://www.geonames.org/ontology#A.ADM1,US,40.00032,-86.25027,None,None
Maine,https://www.geonames.org/ontology#A,https://www.geonames.org/ontology#A.ADM1,US,45.50032,-69.24977,None,None
Michigan,https://www.geonames.org/ontology#A,https://www.geonames.org/ontology#A.ADM1,US,44.25029,-85.50033,None,None
Minnesota,https://www.geonames.org/ontology#A,https://www.geonames.org/ontology#A.ADM1,US,46.25024,-94.25055,None,None
Nebraska,https://www.geonames.org/ontology#A,https://www.geonames.org/ontology#A.ADM1,US,41.50028,-99.75067,None,None
New Hampshire,https://www.geonames.org/ontology#A,https://www.geonames.org/ontology#A.ADM1,US,43.66702,-71.4998,None,None
New Jersey,https://www.geonames.org/ontology#A,https://www.geonames.org/ontology#A.ADM1,US,40.16706,-74.49987,None,None
New York,https://www.geonames.org/ontology#A,https://www.geonames.org/ontology#A.ADM1,US,43.00035,-75.4999,None,None
Ohio,https://www.geonames.org/ontology#A,https://www.geonames.org/ontology#A.ADM1,US,40.25034,-83.00018,None,None
Rhode Island,https://www.geonames.org/ontology#A,https://www.geonames.org/ontology#A.ADM1,US,41.75038,-71.49978,None,None
Vermont,https://www.geonames.org/ontology#A,https://www.geonames.org/ontology#A.ADM1,US,44.00034,-72.74983,None,None
Wisconsin,https://www.geonames.org/ontology#A,https://www.geonames.org/ontology#A.ADM1,US,44.50024,-90.00041,None,None
California,https://www.geonames.org/ontology#A,https://www.geonames.org/ontology#A.ADM1,US,37.25022,-119.75126,None,None
Colorado,https://www.geonames.org/ontology#A,https://www.geonames.org/ontology#A.ADM1,US,39.00027,-105.50083,None,None
New Mexico,https://www.geonames.org/ontology#A,https://www.geonames.org/ontology#A.ADM1,US,34.50034,-106.00085,None,None
Nevada,https://www.geonames.org/ontology#A,https://www.geonames.org/ontology#A.ADM1,US,39.25021,-116.75119,None,None
Utah,https://www.geonames.org/ontology#A,https://www.geonames.org/ontology#A.ADM1,US,39.25024,-111.75103,None,None
Arizona,https://www.geonames.org/ontology#A,https://www.geonames.org/ontology#A.ADM1,US,34.5003,-111.50098,None,None
Idaho,https://www.geonames.org/ontology#A,https://www.geonames.org/ontology#A.ADM1,US,44.5002,-114.25118,None,None
Montana,https://www.geonames.org/ontology#A,https://www.geonames.org/ontology#A.ADM1,US,47.00025,-109.75102,None,None
North Dakota,https://www.geonames.org/ontology#A,https://www.geonames.org/ontology#A.ADM1,US,47.50027,-100.00068,None,None
Oregon,https://www.geonames.org/ontology#A,https://www.geonames.org/ontology#A.ADM1,US,44.00013,-120.50139,None,None
South Dakota,https://www.geonames.org/ontology#A,https://www.geonames.org/ontology#A.ADM1,US,44.50026,-100.25069,None,None
Washington,https://www.geonames.org/ontology#A,https://www.geonames.org/ontology#A.ADM1,US,47.50012,-120.50147,None,None
Wyoming,https://www.geonames.org/ontology#A,https://www.geonames.org/ontology#A.ADM1,US,43.00024,-107.5009,None,None
Hawaii,https://www.geonames.org/ontology#A,https://www.geonames.org/ontology#A.ADM1,US,20.78785,-156.38612,None,None
Alaska,https://www.geonames.org/ontology#A,https://www.geonames.org/ontology#A.ADM1,US,64.00028,-150.00028,None,None
Alberta,https://www.geonames.org/ontology#A,https://www.geonames.org/ontology#A.ADM1,CA,52.28333,-117.469,None,None
British Columbia,https://www.geonames.org/ontology#A,https://www.geonames.org/ontology#A.ADM1,CA,53.99983,-125.0032,None,None
Manitoba,https://www.geonames.org/ontology#A,https://www.geonames.org/ontology#A.ADM1,CA,55.00019,-97.00049,None,None
New Brunswick,https://www.geonames.org/ontology#A,https://www.geonames.org/ontology#A.ADM1,CA,46.5001,-65.99878,None,None
Northwest Territories,https://www.geonames.org/ontology#A,https://www.geonames.org/ontology#A.ADM1,CA,69.50061,-121.50445,None,None
Nova Scotia,https://www.geonames.org/ontology#A,https://www.geonames.org/ontology#A.ADM1,CA,45.00015,-62.99865,None,None
Nunavut,https://www.geonames.org/ontology#A,https://www.geonames.org/ontology#A.ADM1,CA,66.03478,-100.07813,None,None
Ontario,https://www.geonames.org/ontology#A,https://www.geonames.org/ontology#A.ADM1,CA,49.25014,-84.49983,None,None
Prince Edward Island,https://www.geonames.org/ontology#A,https://www.geonames.org/ontology#A.ADM1,CA,46.39808,-63.29844,None,None
Quebec,https://www.geonames.org/ontology#A,https://www.geonames.org/ontology#A.ADM1,CA,52.00017,-71.99907,None,None
Saskatchewan,https://www.geonames.org/ontology#A,https://www.geonames.org/ontology#A.ADM1,CA,54.0001,-106.00099,None,None
Yukon,https://www.geonames.org/ontology#A,https://www.geonames.org/ontology#A.ADM1,CA,62.99962,-135.00404,None,None
Provincia de San José de Ocoa,https://www.geonames.org/ontology#A,https://www.geonames.org/ontology#A.ADM1,DO,18.54882,-70.50877,None,None
Provincia de Santo Domingo,https://www.geonames.org/ontology#A,https://www.geonames.org/ontology#A.ADM1,DO,18.56678,-69.84874,None,None
Kentucky,https://www.geonames.org/ontology#A,https://www.geonames.org/ontology#A.ADM1,US,38.20042,-84.87762,None,None
Massachusetts,https://www.geonames.org/ontology#A,https://www.geonames.org/ontology#A.ADM1,US,42.36565,-71.10832,None,None
Pennsylvania,https://www.geonames.org/ontology#A,https://www.geonames.org/ontology#A.ADM1,US,40.27245,-76.90567,None,None
Virginia,https://www.geonames.org/ontology#A,https://www.geonames.org/ontology#A.ADM1,US,37.54812,-77.44675,None,None
Newfoundland and Labrador,https://www.geonames.org/ontology#A,https://www.geonames.org/ontology#A.ADM1,CA,52,-56,None,None
Guadeloupe,https://www.geonames.org/ontology#A,https://www.geonames.org/ontology#A.ADM1,GP,16.25011,-61.58369,None,None
Martinique,https://www.geonames.org/ontology#A,https://www.geonames.org/ontology#A.ADM1,MQ,14.66655,-60.99961,None,None
Guyane,https://www.geonames.org/ontology#A,https://www.geonames.org/ontology#A.ADM1,GF,3.99929,-52.99856,None,None
Región de Arica y Parinacota,https://www.geonames.org/ontology#A,https://www.geonames.org/ontology#A.ADM1,CL,-18.57336,-69.46106,None,None
Los Ríos Region,https://www.geonames.org/ontology#A,https://www.geonames.org/ontology#A.ADM1,CL,-40.01499,-72.51526,None,None
Provincia de Santo Domingo de los Tsáchilas,https://www.geonames.org/ontology#A,https://www.geonames.org/ontology#A.ADM1,EC,-0.28945,-79.18577,None,None
Provincia de Santa Elena,https://www.geonames.org/ontology#A,https://www.geonames.org/ontology#A.ADM1,EC,-2.08333,-80.58333,None,None
Département de Nippes,https://www.geonames.org/ontology#A,https://www.geonames.org/ontology#A.ADM1,HT,18.44835,-73.4285,None,None
Saint Croix Island,https://www.geonames.org/ontology#A,https://www.geonames.org/ontology#A.ADM1,VI,17.73563,-64.74795,None,None
Saint John Island,https://www.geonames.org/ontology#A,https://www.geonames.org/ontology#A.ADM1,VI,18.32758,-64.73771,None,None
Saint Thomas Island,https://www.geonames.org/ontology#A,https://www.geonames.org/ontology#A.ADM1,VI,18.34537,-64.92755,None,None
Emberá-Wounaan,https://www.geonames.org/ontology#A,https://www.geonames.org/ontology#A.ADM1,PA,8.15236,-77.52502,None,None
Ngöbe-Buglé,https://www.geonames.org/ontology#A,https://www.geonames.org/ontology#A.ADM1,PA,8.48621,-81.73081,None,None
Carriacou and Petite Martinique,https://www.geonames.org/ontology#A,https://www.geonames.org/ontology#A.ADM1,GD,12.47303,-61.45379,None,None
Chaguanas,https://www.geonames.org/ontology#A,https://www.geonames.org/ontology#A.ADM1,TT,10.51718,-61.41503,None,None
Couva-Tabaquite-Talparo,https://www.geonames.org/ontology#A,https://www.geonames.org/ontology#A.ADM1,TT,10.41792,-61.45117,None,None
Diego Martin,https://www.geonames.org/ontology#A,https://www.geonames.org/ontology#A.ADM1,TT,10.7005,-61.53417,None,None
Penal/Debe,https://www.geonames.org/ontology#A,https://www.geonames.org/ontology#A.ADM1,TT,10.16778,-61.46524,None,None
Princes Town,https://www.geonames.org/ontology#A,https://www.geonames.org/ontology#A.ADM1,TT,10.26746,-61.38182,None,None
Point Fortin,https://www.geonames.org/ontology#A,https://www.geonames.org/ontology#A.ADM1,TT,10.184,-61.68197,None,None
Sangre Grande,https://www.geonames.org/ontology#A,https://www.geonames.org/ontology#A.ADM1,TT,10.5835,-61.11772,None,None
Siparia,https://www.geonames.org/ontology#A,https://www.geonames.org/ontology#A.ADM1,TT,10.13382,-61.50121,None,None
San Juan/Laventille,https://www.geonames.org/ontology#A,https://www.geonames.org/ontology#A.ADM1,TT,10.64964,-61.49752,None,None
Tunapuna/Piarco,https://www.geonames.org/ontology#A,https://www.geonames.org/ontology#A.ADM1,TT,10.63387,-61.38182,None,None
Kujalleq,https://www.geonames.org/ontology#A,https://www.geonames.org/ontology#A.ADM1,GL,60.71905,-46.03683,None,None
Qeqqata,https://www.geonames.org/ontology#A,https://www.geonames.org/ontology#A.ADM1,GL,66.93305,-53.67517,None,None
Sermersooq,https://www.geonames.org/ontology#A,https://www.geonames.org/ontology#A.ADM1,GL,64.18284,-51.71831,None,None
Bonaire,https://www.geonames.org/ontology#A,https://www.geonames.org/ontology#A.ADM1,BQ,12.2,-68.25,None,None
Saba,https://www.geonames.org/ontology#A,https://www.geonames.org/ontology#A.ADM1,BQ,17.63333,-63.23333,None,None
Sint Eustatius,https://www.geonames.org/ontology#A,https://www.geonames.org/ontology#A.ADM1,BQ,17.5,-62.96667,None,None
Artemisa,https://www.geonames.org/ontology#A,https://www.geonames.org/ontology#A.ADM1,CU,22.814,-82.75606,None,None
Mayabeque,https://www.geonames.org/ontology#A,https://www.geonames.org/ontology#A.ADM1,CU,22.96155,-82.14718,None,None
Black Point District,https://www.geonames.org/ontology#A,https://www.geonames.org/ontology#A.ADM1,BS,24.09,-76.39556,None,None
Central Abaco District,https://www.geonames.org/ontology#A,https://www.geonames.org/ontology#A.ADM1,BS,26.43917,-77.12972,None,None
Central Andros District,https://www.geonames.org/ontology#A,https://www.geonames.org/ontology#A.ADM1,BS,24.43889,-77.95194,None,None
Central Eleuthera District,https://www.geonames.org/ontology#A,https://www.geonames.org/ontology#A.ADM1,BS,25.135,-76.14556,None,None
Crooked Island and Long Cay District,https://www.geonames.org/ontology#A,https://www.geonames.org/ontology#A.ADM1,BS,22.73361,-74.21528,None,None
East Grand Bahama District,https://www.geonames.org/ontology#A,https://www.geonames.org/ontology#A.ADM1,BS,26.67167,-78.14139,None,None
Grand Cay District,https://www.geonames.org/ontology#A,https://www.geonames.org/ontology#A.ADM1,BS,27.22917,-78.33056,None,None
Hope Town District,https://www.geonames.org/ontology#A,https://www.geonames.org/ontology#A.ADM1,BS,26.52445,-76.97009,None,None
Mangrove Cay,https://www.geonames.org/ontology#A,https://www.geonames.org/ontology#A.ADM1,BS,24.16,-77.78028,None,None
Moore’s Island District,https://www.geonames.org/ontology#A,https://www.geonames.org/ontology#A.ADM1,BS,26.30083,-77.55417,None,None
North Abaco District,https://www.geonames.org/ontology#A,https://www.geonames.org/ontology#A.ADM1,BS,26.78944,-77.43694,None,None
North Andros District,https://www.geonames.org/ontology#A,https://www.geonames.org/ontology#A.ADM1,BS,24.76694,-78.09611,None,None
North Eleuthera,https://www.geonames.org/ontology#A,https://www.geonames.org/ontology#A.ADM1,BS,25.46278,-76.67556,None,None
Rum Cay,https://www.geonames.org/ontology#A,https://www.geonames.org/ontology#A.ADM1,BS,23.67806,-74.85667,None,None
South Abaco District,https://www.geonames.org/ontology#A,https://www.geonames.org/ontology#A.ADM1,BS,26.04694,-77.24361,None,None
South Andros,https://www.geonames.org/ontology#A,https://www.geonames.org/ontology#A.ADM1,BS,23.92361,-77.64889,None,None
South Eleuthera,https://www.geonames.org/ontology#A,https://www.geonames.org/ontology#A.ADM1,BS,24.80083,-76.18306,None,None
Spanish Wells District,https://www.geonames.org/ontology#A,https://www.geonames.org/ontology#A.ADM1,BS,25.54538,-76.77057,None,None
West Grand Bahama District,https://www.geonames.org/ontology#A,https://www.geonames.org/ontology#A.ADM1,BS,26.59333,-78.60056,None,None
George Town,https://www.geonames.org/ontology#A,https://www.geonames.org/ontology#A.ADM1,KY,19.28908,-81.36981,None,None
West Bay,https://www.geonames.org/ontology#A,https://www.geonames.org/ontology#A.ADM1,KY,19.38039,-81.38869,None,None
Bodden Town,https://www.geonames.org/ontology#A,https://www.geonames.org/ontology#A.ADM1,KY,19.2821,-81.25797,None,None
North Side,https://www.geonames.org/ontology#A,https://www.geonames.org/ontology#A.ADM1,KY,19.34824,-81.20849,None,None
East End,https://www.geonames.org/ontology#A,https://www.geonames.org/ontology#A.ADM1,KY,19.29976,-81.11052,None,None
Sister Island,https://www.geonames.org/ontology#A,https://www.geonames.org/ontology#A.ADM1,KY,19.72195,-79.78958,None,None
Blowing Point,https://www.geonames.org/ontology#A,https://www.geonames.org/ontology#A.ADM1,AI,18.177,-63.09161,None,None
Sandy Ground,https://www.geonames.org/ontology#A,https://www.geonames.org/ontology#A.ADM1,AI,18.20399,-63.08993,None,None
Sandy Hill,https://www.geonames.org/ontology#A,https://www.geonames.org/ontology#A.ADM1,AI,18.22066,-63.01178,None,None
The Valley,https://www.geonames.org/ontology#A,https://www.geonames.org/ontology#A.ADM1,AI,18.21475,-63.05706,None,None
East End,https://www.geonames.org/ontology#A,https://www.geonames.org/ontology#A.ADM1,AI,18.234,-62.99728,None,None
North Hill,https://www.geonames.org/ontology#A,https://www.geonames.org/ontology#A.ADM1,AI,18.20603,-63.07607,None,None
West End,https://www.geonames.org/ontology#A,https://www.geonames.org/ontology#A.ADM1,AI,18.17138,-63.15113,None,None
South Hill,https://www.geonames.org/ontology#A,https://www.geonames.org/ontology#A.ADM1,AI,18.19177,-63.0898,None,None
The Quarter,https://www.geonames.org/ontology#A,https://www.geonames.org/ontology#A.ADM1,AI,18.21158,-63.04504,None,None
North Side,https://www.geonames.org/ontology#A,https://www.geonames.org/ontology#A.ADM1,AI,18.22931,-63.0468,None,None
Island Harbour,https://www.geonames.org/ontology#A,https://www.geonames.org/ontology#A.ADM1,AI,18.25617,-63.00724,None,None
George Hill,https://www.geonames.org/ontology#A,https://www.geonames.org/ontology#A.ADM1,AI,18.19943,-63.06517,None,None
Stoney Ground,https://www.geonames.org/ontology#A,https://www.geonames.org/ontology#A.ADM1,AI,18.22112,-63.04466,None,None
The Farrington,https://www.geonames.org/ontology#A,https://www.geonames.org/ontology#A.ADM1,AI,18.21533,-63.02123,None,None
Canaries,https://www.geonames.org/ontology#A,https://www.geonames.org/ontology#A.ADM1,LC,13.90466,-61.06326,None,None
Panamá Oeste,https://www.geonames.org/ontology#A,https://www.geonames.org/ontology#A.ADM1,PA,8.8,-79.9,None,None
Qeqertalik,https://www.geonames.org/ontology#A,https://www.geonames.org/ontology#A.ADM1,GL,68.70716,-52.84289,None,None
Avannaata,https://www.geonames.org/ontology#A,https://www.geonames.org/ontology#A.ADM1,GL,69.21536,-51.08301,None,None
Ñuble,https://www.geonames.org/ontology#A,https://www.geonames.org/ontology#A.ADM1,CL,-36.62291,-72.21643,None,None
